,Unnamed: 0,연번,책방 이름,구 코드,자치구,주소,전화번호,홈페이지 url,책방 구분,책방 구분명,위도,경도,SNS url,무료구분
0,0,2283,1984,313,마포구,마포구 동교로 194 혜원빌딩,02-325-1984,,2,새책방      ,37.55738472,126.9228861,https://www.instagram.com/1984store,무료
1,1,2284,21세기문고,322,강남구,강남구 남부순환로359길 31,02-3463-1880  ,,2,새책방      ,37.48683261,127.0355653,,무료
2,2,2285,C&S서점,322,강남구,강남구 남부순환로 2806 군인공제회관 지하1층,02-2190-2178,,2,새책방      ,37.48910918,127.0529141,,무료
3,3,2829,Foreign book store,302,용산구,용산구 녹사평대로 208,02-793-8249,,1,헌책방      ,37.53624637,126.9872269,https://www.instagram.com/itaewon_foreign_bookstore,무료
4,4,3121,PRNT,319,동작구,동작구 만양로1길 1 1층,070-4177-0021,https://prntseoul.com,2,새책방      ,37.50573295,126.9467369,https://www.instagram.com/prntseoul,무료
5,5,2287,SK문고,308,강북구,강북구 솔샘로 215 2층,02-945-1959,,2,새책방      ,37.6202008,127.0166087,,무료
6,6,2754,YES24 중고매장(목동점),314,양천구,양천구 오목로 325 지하 1층,1566-4295,,1,헌책방      ,37.52510741,126.873627,,무료
7,7,2753,YES24(강서NC점),315,강서구,"강서구 강서로56길 17 NC백화점 강서점 8, 9층",,,2,새책방      ,37.55993353,126.8404988,,무료
8,8,2288,가가77페이지,313,마포구,마포구 망원로 74-1 지하1층,,http://77page.com,2,새책방      ,37.55726128,126.9051793,https://www.instagram.com/gaga77page,무료
9,9,2289,가람프라자,317,금천구,금천구 시흥대로41길 95,02-891-7474,,2,새책방      ,37.45066173,126.9000346,,무료
10,10,3141,감성인간서점,307,성북구,성북구 돌곶이로 41가길 14-10,,https://blog.naver.com/dnfladydgk,2,새책방      ,37.61868437,127.0446506,https://www.instagram.com/gamseongingan,무료
11,11,2290,갑을문고,307,성북구,성북구 화랑로11길 26,0507-1320-0002,,2,새책방      ,37.60330001,127.0421083,https://www.instagram.com/gapeul_bookstore,무료
12,12,2755,강동헌책방,324,강동구,강동구 구천면로 257,02-471-0272,,1,헌책방      ,37.54327293,127.1316483,,무료
13,13,2293,강서책서점,314,양천구,양천구 목동중앙남로 28,02-651-1085,,2,새책방      ,37.53647642,126.8673893,,무료
14,14,2756,개똥이네(가양점),315,강서구,강서구 양천로 431 지하 1층,02-2658-2982 ,,1,헌책방      ,37.56426405,126.8499602,,무료
15,15,2758,개똥이네(노원점),310,노원구,노원구 동일로217가길 17 2층,02-951-2989,,1,헌책방      ,37.6533222,127.0593697,,무료
16,16,2759,개똥이네(영등포점),318,영등포구,영등포구 여의대방로62길 2 5층,02-822-2989,,1,헌책방      ,37.51381602,126.9266765,,무료
17,17,2757,개똥이네(잠실점),323,송파구,송파구 올림픽로35길 93 지하1층 상가 118호,02-445-2989,,1,헌책방      ,37.51773252,127.1044332,,무료
18,18,2294,개롱서적,323,송파구,송파구 오금로 414 명문빌딩 지하1층,02-403-1603,,2,새책방      ,37.49720786,127.1359163,,무료
19,19,2295,거목서점,321,서초구,서초구 신반포로 213 지하 9호,02-3476-1585,,2,새책방      ,37.50727104,127.0072709,,무료
20,20,2760,거북서점,310,노원구,노원구 상계로 115,,,1,헌책방      ,37.6576976,127.0674937,,무료
21,21,2296,건영문고,310,노원구,노원구 섬밭로 258 지하 1층,02-949-2148,,2,새책방      ,37.63910978,127.0649151,,무료
22,22,2297,경일서점,303,성동구,성동구 성수일로 33 지하1층,02-497-5670,,2,새책방      ,37.54364277,127.0491876,,무료
23,23,2298,경희문고,305,동대문구,동대문구 회기로 113,02-957-7799,,2,새책방      ,37.59164957,127.0493102,https://www.instagram.com/khbook_seoul,무료
24,24,2299,계성문고,307,성북구,성북구 길음로 33 2층 22호,02-943-5398,,2,새책방      ,37.60504925,127.0220094,https://www.facebook.com/Gyeseongbooks,무료
25,25,2300,고래서점,302,용산구,용산구 한강대로 307,02-717-8346,http://www.bookgore.com/,2,새책방      ,37.54572765,126.9715375,,무료
26,26,2301,고려서점,315,강서구,강서구 강서로47길 26 지하1층,02-2663-3181,,2,새책방      ,37.552876,126.8347796,,무료
27,27,2761,고시책사랑,320,관악구,관악구 호암로26길 27,02-871-5550,,1,헌책방      ,37.4706007,126.9352363,,무료
28,28,2302,고요서사,302,용산구,용산구 신흥로15길 18-4,0507-1410-4226,http://blog.naver.com/goyo_bookshop,2,새책방      ,37.54437666,126.9858576,https://www.instagram.com/goyo_bookshop,무료
29,29,2303,곰서점,319,동작구,동작구 양녕로 186 지하1층,02-821-5672,,2,새책방      ,37.49791392,126.9435904,,무료
30,30,3142,공간과몰입,300,종로구,종로구 낙산길 19,,https://blog.naver.com/gggmolip,2,새책방      ,37.58054788,127.0055969,https://www.instagram.com/gggmolip/,무료
31,31,2304,공상온도,313,마포구,마포구 동교로 23길40 지하1층,0507-1404-0247,http://www.gongsangondo.com,2,새책방      ,37.55765748,126.9198091,https://www.instagram.com/gongsangondo,무료
32,32,2306,공손서점,324,강동구,강동구 동남로75길 19 지하 1층,02-427-3888,,2,새책방      ,37.55413021,127.1551777,,무료
33,33,2305,공손서점,304,광진구,광진구 아차산로70길 17-17,02-444-1570,,2,새책방      ,37.54169929,127.1025258,,무료
34,34,2307,공신서점,314,양천구,양천구 신정로13길 22,02-2699-4002,,2,새책방      ,37.51142543,126.8431316,,무료
35,35,2762,공씨책방(성수점),303,성동구,성동구 광나루로 130 106호-라,,,1,헌책방      ,37.55097877,127.0447207,,무료
36,36,2763,공씨책방(신촌점),312,서대문구,서대문구 신촌로 55-2,02-336-3058,,1,헌책방      ,37.5568761,126.932749,,무료
37,37,2308,공일서점,310,노원구,노원구 공릉로 101 경동상가,02-972-6407,,2,새책방      ,37.61930144,127.0778417,,무료
38,38,2309,공작문고,313,마포구,마포구 성산로 128 마포중앙도서관 지하 1층,,,2,새책방      ,37.56379544,126.9082019,https://www.instagram.com/gongjakbooks,무료
39,39,2310,과학책방 갈다,300,종로구,종로구 삼청로10길 18,0507-1314-1018,http://galdar.kr,2,새책방      ,37.58763566,126.9820384,https://www.instagram.com/galdarbookshop,무료
40,40,2311,관객의취향,320,관악구,관악구 관악로 204 3층 301호,070-8818-2046 ,http://smartstore.naver.com/yourtastebook,2,새책방      ,37.48296173,126.9542948,https://www.instagram.com/your_taste_film,무료
41,41,2312,광명문고,311,은평구,은평구 수색로 268 지하 1층,02-303-0524,https://blog.naver.com/herryqrio ,2,새책방      ,37.5829395,126.8947019,https://www.instagram.com/km3030524/,무료
42,42,2313,광진서적,304,광진구,광진구 광나루로36길 76,02-455-2999,,2,새책방      ,37.5416637,127.0854335,,무료
43,43,2314,광평서점,322,강남구,강남구 광평로 63,02-445-6842,,2,새책방      ,37.48286093,127.0796263,,무료
44,44,2316,교보문고(가든파이브 바로드림센터),323,송파구,"송파구 충민로 66, 가든파이브 라이프 리빙관 현대시티몰 4층",1544-1900,,2,새책방      ,37.47761484,127.1249618,,무료
45,45,2317,교보문고(강남점),321,서초구,"서초구 강남대로 465, 교보타워 지하 1~지하 2층",1544-1900,https://www.kyobobook.co.kr/store/?storeCode=015,2,새책방      ,37.50375605,127.0241095,,무료
46,46,2941,교보문고(건대 바로드림센터),304,광진구,능동로 92 롯데백화점 스타시티점 지하1층,1544-1900,,2,새책방      ,37.53899977,127.0712144,,무료
47,47,2318,교보문고(광화문점),300,종로구,"종로구 종로 1, 교보생명빌딩 지하 1층",1544-1900,,2,새책방      ,37.57095784,126.9779288,,무료
48,48,2319,교보문고(동대문 바로드림센터),301,중구,"중구 장충단로13길 20, 현대시티아울렛 지하 1층",1544-1900,,2,새책방      ,37.56873455,127.0076665,,무료
49,49,2320,교보문고(디큐브시티 바로드림센터),316,구로구,"구로구 경인로 662, 현대백화점 지하 1층",1544-1900,,2,새책방      ,37.50812307,126.888213,,무료
50,50,2321,교보문고(목동점),314,양천구,"양천구 목동서로 159-1, CBS 지하 1층",1544-1900,,2,새책방      ,37.52823182,126.8749907,,무료
51,51,2322,교보문고(수유 바로드림센터),308,강북구,"강북구 도봉로 348, 교보생명빌딩 지하 1층",1544-1900,,2,새책방      ,37.6383189,127.0265481,,무료
52,52,2323,교보문고(신논현역스토어),322,강남구,강남구 봉은사로 102 지하 1층,1544-1900,,2,새책방      ,37.50463416,127.0250313,,무료
53,53,2324,교보문고(영등포점),318,영등포구,"영등포구 영중로 15, 타임스퀘어 멀티플렉스 2층",1544-1900,,2,새책방      ,37.51723326,126.903716,,무료
54,54,2325,교보문고(은평 바로드림센터),311,은평구,"은평구 통일로 1050, 롯데몰 3층",1544-1900,,2,새책방      ,37.63753667,126.9179003,,무료
55,55,2326,교보문고(잠실점),323,송파구,"송파구 올림픽로 269, 롯데캐슬골드 지하 1층",1544-1900,,2,새책방      ,37.51442735,127.1006114,,무료
56,56,2327,교보문고(천호점),324,강동구,"강동구 올림픽로 664, 대우한강베네시티 지하 1층",1544-1900,,2,새책방      ,37.54055538,127.1249758,,무료
57,57,2328,교보문고(청량리 바로드림센터),305,동대문구,"동대문구 왕산로 214, 롯데백화점 청량리점 지하 1층",1544-1900,,2,새책방      ,37.58419614,127.0511471,,무료
58,58,2329,교보문고(합정점),313,마포구,"마포구 월드컵로3길 14 딜라이트스퀘어 2차(지하 1층), 1차(지하 2층)",1544-1900,,2,새책방      ,37.55100797,126.911649,,무료
59,59,2330,교보서적,315,강서구,강서구 양천로 87 대일빌딩 지하1층,02-2664-6148 ,,2,새책방      ,37.57360861,126.8136505,,무료
60,60,2331,구일서점,316,구로구,구로구 구일로4길 66,02-853-0191,,2,새책방      ,37.49368169,126.8763089,,무료
61,61,2332,그날이오면 ,320,관악구,관악구 신림로 14길 26,02-885-8290,http://www.gnal.co.kr,2,새책방      ,37.47189358,126.9383179,https://www.facebook.com/bookstoregnal,무료
62,62,2333,그래서,301,중구,중구 동호로37길 20 A동 2층 132호,02-2268-3305,http://glaeso.shop.blogpay.co.kr,2,새책방      ,37.56872417,127.0008056,https://www.instagram.com/glaeso_book,무료
63,63,3282,그래픽,302,용산구,용산구 회나무로39길 33,070-4070-0204,,2,새책방      ,37.54093281,126.9935916,https://www.instagram.com/graphic.fan,무료
64,64,3143,그래픽,302,용산구,용산구 회나무로39길 33,070-4070-0204,,2,새책방      ,37.54093281,126.9935916,https://www.instagram.com/graphic.fan/,무료
65,65,2334,그랜드문고,310,노원구,노원구 한글비석로 253 지하1층,02-938-1065,https://smartstore.naver.com/grandbooks,2,새책방      ,37.6504237,127.0763481,,무료
66,66,2764,그린북스,306,중랑구,중랑구 봉화산로 94 2층,02-433-6728,,1,헌책방      ,37.60208775,127.0849258,,무료
67,67,2336,그림책방 곰곰,313,마포구,마포구 연남로 61-1,02-335-2041,https://smartstore.naver.com/gomgombookstore,2,새책방      ,37.56462283,126.9198304,https://www.instagram.com/gomgombookstore,무료
68,68,2765,글방,301,중구,중구 청계천로 274 다7호,02-2273-0111,,1,헌책방      ,37.56942586,127.0080476,,무료
69,69,2766,글벗서점,313,마포구,마포구 신촌로 48,02-333-1382,,1,헌책방      ,37.55683681,126.9313194,,무료
70,70,2337,글벗서점,322,강남구,강남구 도곡로 516 삼성상가 지하1층,02-557-8910,,2,새책방      ,37.49918128,127.0629879,,무료
71,71,2338,글벗서점,311,은평구,은평구 은평로 66,02-302-6621,,2,새책방      ,37.59879593,126.9151238,,무료
72,72,2339,글빛문고,314,양천구,양천구 목동중앙로 43 지하 1층,02-2642-8360,,2,새책방      ,37.533541,126.8695252,,무료
73,73,3061,금지옥엽,301,중구,중구 청계천로 160 세운청계상가 3층 데크 가열 312호,02-2273-0220,https://cherishstorage.kr/,2,새책방      ,37.56797986,126.9953651,https://www.instagram.com/cherish_storage/,무료
74,74,2767,기독성문서적,301,중구,중구 청계천로 274 다26호,02-2279-3902,,1,헌책방      ,37.56942586,127.0080476,,무료
75,75,2768,깡지서점,320,관악구,관악구 신림로 30길 21,,,1,헌책방      ,37.47318034,126.9358177,,무료
76,76,2340,꼬리달린책방(협동조합 카페마을),314,양천구,양천구 목동중앙북로16길 39,02-6052-0620,,2,새책방      ,37.54447865,126.8739729,https://www.instagram.com/tail_bookstore,무료
77,77,2341,꽃피는책,314,양천구,양천구 목동중앙북로16길 58,0507-1306-0858,,2,새책방      ,37.54353549,126.8738048,https://www.instagram.com/blooming__books,무료
78,78,2342,나나문고,322,강남구,강남구 선릉로 221 도곡렉슬상가 지하1층,02-571-4495,,2,새책방      ,37.49420684,127.0497348,,무료
79,79,2343,나라문고,315,강서구,강서구 강서로 247 지하1층,02-2603-3231,,2,새책방      ,37.54779279,126.8360362,,무료
80,80,2344,나무곁에서서,315,강서구,강서구 강서로76길 19,,https://blog.naver.com/bythetreebooks,2,새책방      ,37.56934296,126.8426277,http://www.instagram.com/by.thetree.books,무료
81,81,2345,나비루,323,송파구,송파구 올림픽로10길 40 102호,070-7573-3034,,2,새책방      ,37.50818302,127.081577,https://www.instagram.com/nabirubook,무료
82,82,2346,날일달월,304,광진구,광진구 아차산로78길 7 유진스웰 B 202호,02-457-0102,https://blog.naver.com/nalildalwol,2,새책방      ,37.5503756,127.1092971,https://www.instagram.com/nalildalwol,무료
83,83,2769,남영서점,319,동작구,동작구 서달로 149,02-815-3830,,1,헌책방      ,37.50677051,126.9614626,,무료
84,84,2347,낫저스트북스,303,성동구,성동구 성덕정9가길 14,070-4112-2016,https://notjust-books.com,2,새책방      ,37.53887486,127.0512958,https://www.instagram.com/notjust_books,무료
85,85,2348,노른자책방,318,영등포구,영등포구 선유로9길 30 롯데캐슬상가 207호,0507-1351-0173,https://blog.naver.com/norunza-art,2,새책방      ,37.52443186,126.8847533,https://www.instagram.com/norunza,무료
86,86,2349,노말에이,301,중구,중구 마른내로 12 4층,070-4681-5858 ,http://normala.kr,2,새책방      ,37.56460792,126.9891161,https://www.instagram.com/normala.kr,무료
87,87,2350,노원문고 본점,310,노원구,노원구 동일로 1384 지하1층,02-951-0633,http://www.nowonbook.com,2,새책방      ,37.65234567,127.0615671,https://www.instagram.com/nowonmungo,무료
88,88,2351,노원문고 제5매장,310,노원구,노원구 상계로 59 동명빌딩 지하1층,02-932-3822,http://www.nowonbook.com,2,새책방      ,37.65616028,127.0615152,https://www.instagram.com/nowonmungo5th,무료
89,89,2352,노원문고 중계점,310,노원구,노원구 중계로 206 지하1층,02-2091-0633,http://www.nowonbook.com,2,새책방      ,37.65084171,127.0775257,https://www.instagram.com/nowonmungo04,무료
90,90,2353,뉴타운문고,308,강북구,강북구 도봉로 45 숭인시장 나진동1호,02-980-2105,,2,새책방      ,37.61314356,127.0294532,,무료
91,91,2354,늘벗서점,320,관악구,관악구 신림로 83,02-887-4971,https://nbcpa.co.kr/shop/,2,새책방      ,37.47034117,126.9401232,,무료
92,92,2355,늘푸른글방,318,영등포구,영등포구 영등포로 418-1,02-841-5139,,2,새책방      ,37.51259902,126.9243748,,무료
93,93,2356,니은서점,311,은평구,은평구 연서로26길 35,02-6084-8433,https://cafe.naver.com/bookshopnieun,2,새책방      ,37.61514899,126.9221987,https://www.instagram.com/book_shop_nieun,무료
94,94,2357,다름상상,304,광진구,광진구 구의로16길 93,,,2,새책방      ,37.54146317,127.0946077,https://www.instagram.com/darmsangsang,무료
95,95,2770,다모아헌책방,319,동작구,동작구 사당로17길 25,0507-1406-8571,,1,헌책방      ,37.4842974,126.9735363,,무료
96,96,2358,다산서적,320,관악구,관악구 대학6길 19,02-883-9321,http://www.acegosi.com,2,새책방      ,37.46893814,126.9365331,,무료
97,97,2359,다솜서점,320,관악구,관악구 난우10길 6 지하1층,02-864-1330,,2,새책방      ,37.47606536,126.9180205,,무료
98,98,2360,다솜서점,310,노원구,노원구 동일로 1677 제성빌딩 지하1층,02-932-5808,,2,새책방      ,37.67818419,127.0549684,,무료
99,99,2361,다시서점,315,강서구,강서구 공항대로8길 77-24,0507-1411-4869,https://dasibookshop.com,2,새책방      ,37.5574055,126.8129789,https://www.instagram.com/dasibookshop,무료
100,100,2362,다온책방,307,성북구,성북구  한천로68길 31,02-6014-1414 ,,2,새책방      ,37.60915189,127.0658626,,무료
101,101,2363,달걀책방,312,서대문구,서대문구 성산로9길 43-35,070-8822-2425,https://www.eggbookshop.com,2,새책방      ,37.56765993,126.9229877,https://www.instagram.com/egg.bookshop,무료
102,102,2771,달마헌책방,320,관악구,관악구 남부순환로 1925 지하 1층,02-811-1256,http://www.dharmabooks.co.kr,1,헌책방      ,37.4775252,126.9632763,,무료
103,103,2364,당인리책발전소,313,마포구,마포구 월드컵로14길 10-8,02-8702-1022,https://www.bronteshop.co.kr,2,새책방      ,37.555689,126.9111491,https://www.instagram.com/danginbookplant,무료
104,104,2772,대광서림,301,중구,중구 청계천로 274 다9호,02-2272-4741,,1,헌책방      ,37.56942586,127.0080476,,무료
105,105,2365,대교서적,318,영등포구,영등포구 국제금융로7길 22 대교비상가 116호,0507-1392-6407,,2,새책방      ,37.52325044,126.9330741,,무료
106,106,2366,대륙서점,319,동작구,동작구 성대로 40,02-821-8878,,2,새책방      ,37.49894128,126.9332915,https://www.instagram.com/daerukbooks,무료
107,107,2367,대림문고,318,영등포구,영등포구 대림로 199 건용빌딩,02-841-1101,,2,새책방      ,37.49856075,126.8979202,,무료
108,108,2368,대민문고,320,관악구,관악구 관악로 212 관악프라자 지하1층,02-875-5300,,2,새책방      ,37.48362314,126.9551835,,무료
109,109,2369,대성서점,311,은평구,은평구 갈현로29길 51-30,02-357-3410,,2,새책방      ,37.62240897,126.9102646,,무료
110,110,2370,대승서적,300,종로구,종로구 율곡로14길 57,02-2277-0656,,2,새책방      ,37.57377607,127.0041809,,무료
111,111,2371,대영문고,315,강서구,강서구 양천로 669 2층,02-3663-7859,,2,새책방      ,37.55185997,126.8712031,,무료
112,112,2374,대원서적,300,종로구,종로구 종로 258 덕성빌딩,02-2275-1543 ,,2,새책방      ,37.5706569,127.0064795,,무료
113,113,2773,대원서점,301,중구,중구 청계천로 274 다12호,02-2273-0109,,1,헌책방      ,37.56942586,127.0080476,,무료
114,114,2375,대원서점,307,성북구,성북구 정릉로 241,0507-1396-0660,,2,새책방      ,37.60529785,127.010903,,무료
115,115,2373,대원책문고,318,영등포구,영등포구 당산로45길 1 당산 삼성쉐르빌 205호,02-2671-2375 ,,2,새책방      ,37.53323429,126.9005103,,무료
116,116,2376,대일서점,317,금천구,금천구 시흥대로 474,02-853-1948,,2,새책방      ,37.47586215,126.8990107,,무료
117,117,2377,대지책문고,315,강서구,강서구 등촌로39길 13 지하1층,02-2644-2650,,2,새책방      ,37.54552768,126.8614993,,무료
118,118,2378,대천서점,320,관악구,관악구 남부순환로 1734 지하1층,02-878-7557,,2,새책방      ,37.48198569,126.9427729,,무료
119,119,2774,대흥서점,308,강북구,강북구 도봉로 49길 19,02-981-3214,,1,헌책방      ,37.62495077,127.0254013,,무료
120,120,2379,더레퍼런스,300,종로구,종로구 자하문로24길 44,070-4150-3105,https://www.the-ref.kr,2,새책방      ,37.58228897,126.9718052,https://www.instagram.com/the_reference_seoul,무료
121,121,3157,더레퍼런스(서소문점),301,중구,중구 덕수궁길 61 전시동 3층,,https://www.the-ref.kr,2,새책방      ,37.56410607,126.9736993,https://www.instagram.com/the_reference_seoul,무료
122,122,2380,더북소사이어티,300,종로구,종로구 자하문로19길 25 지하 1층,070-8621-5676 ,http://www.thebooksociety.org,2,새책방      ,37.58213209,126.9695429,,무료
123,123,2381,더북스 금성서적,321,서초구,신반포로3길 8 B104 ,02-599-4148,,2,새책방      ,37.50213895,126.986904,,무료
124,124,2386,더북스 반포점,321,서초구,서초구 고무래로 22,02-3477-6545 ,,2,새책방      ,37.5025732,127.0107579,,무료
125,125,2988,더북스 신대방점,319,동작구,상도로 37,070-7574-4283,,2,새책방      ,37.50001128,126.9246811,,무료
126,126,2383,더북스 한길서점(방배),321,서초구,서초구 동작대로 132 안석빌딩 지하1층,02-591-2274,,2,새책방      ,37.48825796,126.9827699,,무료
127,127,2902,더숲 초소책방,300,종로구,종로구 인왕산로 172,02-735-0206,https://chosobooks.com/,2,새책방      ,37.58595334414469,126.96427697514989,https://www.instagram.com/chosochaekbang,무료
128,128,2775,덕인서림,301,중구,중구 청계천로 274 다32호,02-2273-8420,,1,헌책방      ,37.56942586,127.0080476,,무료
129,129,2388,도도봉봉,309,도봉구,도봉구 도봉로114길 57,0507-143-5335,https://m.blog.naver.com/dodobonbon,2,새책방      ,37.64767751,127.0374983,https://www.instagram.com/dodo_bongbong,무료
130,130,2390,도원문고,303,성동구,성동구 독서당로 294 지하1층,02-2233-4286,,2,새책방      ,37.5479506,127.0216299,,무료
131,131,3127,도하서림,302,용산구,용산구 한강대로 104길 45 상아빌딩 401호,,https://dohabookstore.co.kr,2,새책방      ,37.55057222,126.9746821,https://www.instagram.com/dohabookstore,무료
132,132,2391,도화북스(도화아파트먼트),313,마포구,마포구 도화2길 27,02-713-0227,https://dohwa-apartment.com,2,새책방      ,37.5395405,126.9494904,https://www.instagram.com/dohwa_apt,무료
133,133,2392,동남서적,300,종로구,종로구 종로6가 267-1,02-2266-0924,,2,새책방      ,37.57104979,127.006996,,무료
134,134,3281,동네책방 원테이블,317,금천구,금천구 독산로8길 14,02-896-0512,,2,새책방      ,37.44934994,126.9063021,https://www.instagram.com/onetable_o,무료
135,135,2393,동네책방개똥이네책놀이터,313,마포구,마포구 월드컵로 128-3,02-338-0478,http://cafe.naver.com/dongneabook,2,새책방      ,37.55982606,126.9071049,https://www.instagram.com/book338_0478,무료
136,136,2394,동명서점,300,종로구,"종로구 종로 266, A-20호",02-2265-6696,,2,새책방      ,37.5706569,127.0064795,,무료
137,137,2395,동방서적,316,구로구,구로구 경인로 219 지하1층,02-2616-9911,,2,새책방      ,37.49681576,126.8450708,,무료
138,138,2396,동북문고,324,강동구,강동구 양재대로 1341 지하1층,02-477-8200,,2,새책방      ,37.52615734,127.1351684,,무료
139,139,2776,동신서림,301,중구,중구 청계천로 246  다139호,02-2273-3411,,1,헌책방      ,37.56936838,127.0047211,,무료
140,140,2777,동아서점,301,중구,중구 청계천로 274 다11호,02-2272-4013,,1,헌책방      ,37.56942586,127.0080476,,무료
141,141,2397,동아서점,309,도봉구,도봉구 덕릉로 253,02-904-1360,,2,새책방      ,37.64029729,127.0393961,,무료
142,142,2382,동아서점,322,강남구,강남구 압구정로 29길 68,02-545-0948,,2,새책방      ,37.53253638,127.0291865,,무료
143,143,2398,동양서림,300,종로구,종로구 창경궁로 271-1,02-762-0715,https://blog.naver.com/dilek_choi,2,새책방      ,37.58556826,127.0006014,https://www.instagram.com/dongyangbooks,무료
144,144,2399,동일서점프라자,317,금천구,금천구 금하로 771,02-802-7446,,2,새책방      ,37.45050633,126.9155489,,무료
145,145,2400,동지서적,300,종로구,종로구 김상옥로 64-1 여양진씨대종회 회관,02-762-7596,,2,새책방      ,37.57336582,127.0048969,,무료
146,146,2778,동화마을,301,중구,중구 청계천로 274 다91호,02-2278-0408,,1,헌책방      ,37.56942586,127.0080476,,무료
147,147,2401,두나서점(도곡점),322,강남구,강남구 선릉로 325 지하1층,02-561-4326,http://blog.naver.com/ydss0561,2,새책방      ,37.49859224,127.0515659,,무료
148,148,2402,드림서점,320,관악구,관악구 은천로25길 27 하우젠빌 104호,02-887-4940,,2,새책방      ,37.48794795,126.9493096,,무료
149,149,3128,디자인북,313,마포구,마포구 동교로 148-8,02-333-0342,http://designbook.co.kr/,2,새책방      ,37.55501333,126.9186372,,무료
150,150,2403,땡스북스,313,마포구,마포구 양화로6길 57-6,02-325-0321,http://www.thanksbooks.com,2,새책방      ,37.54886806,126.9177079,https://www.instagram.com/thanksbooks,무료
151,151,2404,라이너노트,313,마포구,마포구 양화로15안길 6,070-7730-2463,https://smartstore.naver.com/linernote,2,새책방      ,37.55446549,126.9188414,https://www.instagram.com/linernote.musicbook,무료
152,152,2408,로뎀서적,315,강서구,강서구 월정로 128-1 지하1층,02-2699-5365,,2,새책방      ,37.53063817,126.8381598,,무료
153,153,3129,로우북스,313,마포구,마포구 포은로 56,,https://lowbooks.notion.site,2,새책방      ,37.552386,126.9067828,https://www.instagram.com/low_books,무료
154,154,3148,로프 에디션스,313,마포구,마포구 희우정로16길 50,0507-1325-5519,,2,새책방      ,37.55474866,126.9047167,https://www.instagram.com/ropeeditions/,무료
155,155,2409,로프트북스,300,종로구,종로구 창의문로 129 2층,0507-1310-3225,https://brunch.co.kr/@analogcabinet,2,새책방      ,37.5923736,126.9659978,https://www.instagram.com/loftbooks_seoul,무료
156,156,2410,마들문고,310,노원구,노원구 동일로 1550 고려프라자빌딩 지하1층,02-938-0028,,2,새책방      ,37.66691162,127.0575497,,무료
157,157,2411,마음책방 서가는,300,종로구,종로구 창경궁로35길 21,070-8818-0137 ,https://smartstore.naver.com/houseinmind,2,새책방      ,37.58698605,127.0017643,https://www.instagram.com/houseinmind,무료
158,158,2412,마이어 날다,302,용산구,용산구 서빙고로 17 용산센트럴파크 해링턴스퀘어 상가 Mall D 2층 43호,0507-1324-7487,https://blog.naver.com/meiernalda,2,새책방      ,37.52690561,126.9665662,https://www.instagram.com/meier.nalda,무료
159,159,3131,마이페이브리트,300,종로구,종로구 자하문로 121 지하 1층,02-544-9319,http://www.alicesugar.com/,2,새책방      ,37.58686372,126.9694751,,무료
160,160,2413,마중물서점,323,송파구,송파구 삼전로 99,02-425-7279,,2,새책방      ,37.50726237,127.0901339,,무료
161,161,2990,마포문고,313,마포구,마포구 큰우물로 60 지하1층,0507-1315-0066,,2,새책방      ,37.54182496,126.9448138,https://www.instagram.com/mapomoongo,무료
162,162,2414,마포문구문고,315,강서구,강서구 화곡로 404 1층,02-3664-1704,,2,새책방      ,37.55924246,126.8544406,,무료
163,163,2415,만나서적,300,종로구,종로구 율곡로14길 57,02-2267-7385,,2,새책방      ,37.57377607,127.0041809,,무료
164,164,3026,만유인력,313,마포구,손기정로 52,0507-1328-5935,https://blog.naver.com/universalgravity,2,새책방      ,37.55617216,126.9623763,https://www.instagram.com/manyoupowerpeople,무료
165,165,2416,만점문고,318,영등포구,영등포구 당산로44길 3, 02-2672-2375 ,,2,새책방      ,37.53191435,126.9010775,,무료
166,166,2779,만화뱅크,310,노원구,노원구 초안산로 19,,,1,헌책방      ,37.62954665,127.0541691,,무료
167,167,2417,만화살롱 유어마나,313,마포구,마포구 와우산로 13 지하1층,02-332-7972 ,http://www.your-mana.com,2,새책방      ,37.54565425,126.9227213,https://www.instagram.com/salon.your.mana,무료
168,168,2418,매거진랜드,313,마포구,마포구 잔다리로6길 17 1층,02-3142-6460,http://www.magazineland.co.kr,2,새책방      ,37.55224414,126.9201179,https://www.instagram.com/magazineland.seoul/,무료
169,169,2419,매일문고,311,은평구,은평구 서오릉로 133,02-355-0262,,2,새책방      ,37.61062883,126.9178217,,무료
170,170,2420,메종인디아 트래블앤북스,321,서초구,서초구 방배로23길 31-43,0507-1314-1045,http://www.maisonindia.co.kr,2,새책방      ,37.48508984,126.9922195,https://www.instagram.com/maison_india1,무료
171,171,2421,명덕서점,315,강서구,강서구 공항대로36길 91,02-2663-8874,,2,새책방      ,37.5544673,126.8362392,,무료
172,172,3149,명동문고,301,중구,서울 중구 명동길 66,02-752-2015,,2,새책방      ,37.56392941,126.9860336,,무료
173,173,2422,명지서점,312,서대문구,서대문구 가좌로 120,02-305-6467,,2,새책방      ,37.58322713,126.9255128,,무료
174,174,2423,모닝책서점(모닝글로리),309,도봉구,도봉구 시루봉로 67,02-956-9227,,2,새책방      ,37.65683757,127.0275781,,무료
175,175,3025,모모,309,도봉구,도봉로181나길 16 B1,0507-1302-9640,,2,새책방      ,37.68345125,127.0444235,https://www.facebook.com/mojorimoida,무료
176,176,2424,목동문고,314,양천구,양천구 목동서로 400 10단지아파트 A상가 지하 1층,0507-1389-3070,http://www.mokdongbs.com/,2,새책방      ,37.51500506,126.8580457,,무료
177,177,2882,무아레 서점,305,동대문구,천호대로89길 9 2층,0507-1307-7656,,2,새책방      ,37.56228522,127.0680643,https://www.instagram.com/moire_books,무료
178,178,2425,무엇보다 책방,323,송파구,송파구 백제고분로 45길 30 미석빌딩 305호 ,0507-1398-1880,https://smartstore.naver.com/morethananthing,2,새책방      ,37.51049471,127.1084796,https://www.instagram.com/more.than_anything,무료
179,179,2780,문성서점,301,중구,중구 청계천로 274 다82호,02-2266-3772,,1,헌책방      ,37.56942586,127.0080476,,무료
180,180,3027,문학살롱 초고,313,마포구,독막로2길 30,02-332-7579,,2,새책방      ,37.54727401,126.9142783,https://www.instagram.com/chogo_seoul,무료
181,181,2428,문향서점,301,중구,중구 수표로2길 11,02-2274-5434,,2,새책방      ,37.56223378,126.9911499,,무료
182,182,3184,문화공간 길담,300,종로구,종로구 자하문로17길 12-9,02-722-1368,https://cafe.naver.com/gildamspace,2,새책방      ,37.58173442,126.9696777,https://www.instagram.com/gildam_official,무료
183,183,2429,문화문고,312,서대문구,서대문구 간호대로 4,02-395-4097,https://munhwamungo.modoo.at,2,새책방      ,37.59663765,126.9490122,,무료
184,184,2430,문화서점,313,마포구,마포구 성암로 267 mbc 지하 1층 mbc몰,0507-1302-3898,,2,새책방      ,37.58112342,126.890989,https://www.instagram.com/munhwabooks/,무료
185,185,2781,문화서점,319,동작구,동작구 상도로 175,02-823-5204,,1,헌책방      ,37.50454902,126.9382077,,무료
186,186,2782,문화서점,307,성북구,성북구 정릉로 330-1,02-917-6874,http://www.bookst.co.kr,1,헌책방      ,37.60196033,127.0197434,,무료
187,187,3185,뭐든지 책방,300,종로구,종로구 창신길 119,02-766-3581,https://blog.naver.com/mordeunji,2,새책방      ,37.57669052,127.0100096,https://www.instagram.com/mordeunji,무료
188,188,2431,미스터리 유니온,312,서대문구,서대문구 이화여대길 88-11,02-6080-7040,,2,새책방      ,37.55935841,126.9437109,https://www.instagram.com/mysteryunionbook,무료
189,189,2432,미하북스,311,은평구,은평구 증산로21길 10-1,02-355-1876,mihabooks.com,2,새책방      ,37.59601054,126.9136736,https://www.instagram.com/mihabooks,무료
190,190,2433,민영서점,309,도봉구,도봉구 도봉로 180나길 41 한신쇼핑 3층 318호,02-955-7046,,2,새책방      ,37.68434454,127.0498958,,무료
191,191,2783,민중서림,301,중구,중구 청계천로 274 다14호,02-2265-3314,,1,헌책방      ,37.56942586,127.0080476,,무료
192,192,2434,믿음문고,321,서초구,서초구 양재천로 95-4,0507-1332-8248,https://smartstore.naver.com/fflbooks,2,새책방      ,37.47619357,127.0395963,https://www.instagram.com/ffl.books,무료
193,193,2784,밍키,301,중구,중구 청계천로 274 다10호,02-2273-9905,,1,헌책방      ,37.56942586,127.0080476,,무료
194,194,2435,바람길,306,중랑구,중랑구 망우로 332,02-434-6449,http://www.facebook.com/baramgilbooks,2,새책방      ,37.59700674,127.0892755,https://www.instagram.com/baramgilbooks/,무료
195,195,2436,반도서점,317,금천구,금천구 독산로 136,02-805-9839,,2,새책방      ,37.45950062,126.9052313,,무료
196,196,3133,밝은책방,320,관악구,관악구 봉천로 540-1 2층,0507-1388-6511,https://linktr.ee/brightbooks_law,2,새책방      ,37.47838571,126.9577682,https://www.instagram.com/brightbooks_law,무료
197,197,2437,밤의서점,312,서대문구,서대문구 성산로 309-51,,https://smartstore.naver.com/nightbookstore,2,새책방      ,37.56671359,126.9240556,https://www.instagram.com/librairie_de_nuit,무료
198,198,2438,배광서점,314,양천구,양천구 목동중앙남로 28,02-2643-1020 ,,2,새책방      ,37.53647642,126.8673893,,무료
199,199,2439,배화우리서점,300,종로구,종로구 필운대로1길 31,02-738-9184,,2,새책방      ,37.57777837,126.9677399,,무료
200,200,2440,백호문구서점,313,마포구,마포구 광성로6안길 10,02-716-8628,,2,새책방      ,37.54886866,126.9381762,,무료
201,201,2441,번동문고,308,강북구,강북구 오현로 191 지하1층,02-981-8425,,2,새책방      ,37.62882043,127.0391947,,무료
202,202,2442,번역가의 서재,313,마포구,마포구 동교로17길 67 101호,0507-1367-7421,,2,새책방      ,37.55765179,126.9142773,https://www.instagram.com/tlbseoul,무료
203,203,2985,법문서적,320,관악구,신림로23길 16 2층,02-882-3333,http://www.bubmoon.com,2,새책방      ,37.47048117,126.9344768,,무료
204,204,2443,벧엘서점,315,강서구,강서구 강서로47길 36,02-2663-1678,,2,새책방      ,37.55295337,126.8341859,,무료
205,205,2585,별책방(구예스서점),312,서대문구,서대문구 거북골로20길 71 창경빌딩 지하1층,0507-1317-0139,,2,새책방      ,37.58107104,126.9112801,,무료
206,206,2444,별책부록,302,용산구,용산구 신흥로16길 7,070-4007-6690,https://www.byeolcheck.kr,2,새책방      ,37.54493118,126.9869973,https://www.instagram.com/byeolcheck,무료
207,207,2445,보람책문고,310,노원구,노원구 한글비석로 466 지하1층,02-935-4999,,2,새책방      ,37.66457189,127.0664179,,무료
208,208,2446,보성서점,324,강동구,강동구 양재대로89길 28,02-483-1477,,2,새책방      ,37.52689198,127.133932,,무료
209,209,2447,보안책방,300,종로구,종로구 효자로 33 2층,02-720-8409,http://b1942.com,2,새책방      ,37.57911789,126.9736303,https://www.instagram.com/boanbooks,무료
210,210,2448,본동서적,317,금천구,금천구 금하로 631-7,02-893-0158,,2,새책방      ,37.45514372,126.9012035,,무료
211,211,2449,부비프,307,성북구,성북구 보문로30가길 31,,,2,새책방      ,37.58926091,127.0214972,https://www.instagram.com/buvif.bookshop,무료
212,212,3135,북데이423,324,강동구,강동구 고덕로 266,02-442-5581,,2,새책방      ,37.55469368,127.1551146,https://www.instagram.com/bookday423_official,무료
213,213,2451,북라인,320,관악구,관악구 신림로28길 81,02-883-4939,http://gosibookline.co.kr/,2,새책방      ,37.47202216,126.9378065,,무료
214,214,2452,북바이북,300,종로구,종로구 새문안로5길 19 로얄빌딩,0507-1313-0416,http://bookbybook.co.kr,2,새책방      ,37.57202956,126.9742933,https://www.instagram.com/book_by_book,무료
215,215,2453,북뱅크,310,노원구,노원구 한글비석로 242 삼부프라자 지하1층,02-2091-0304,,2,새책방      ,37.6492349,127.0769736,,무료
216,216,2454,북새통문고,313,마포구,마포구 양화로 188 애경타워 5층,02-324-0211,,2,새책방      ,37.55774581,126.9264983,,무료
217,217,2456,북스리브로(구로점),316,구로구,구로구 구로중앙로 152 NC신구로점 5층,070-4726-2825,https://www.bookslibro.com,2,새책방      ,37.50116014,126.882773,,무료
218,218,2457,북스리브로(상봉점),306,중랑구,중랑구 상봉로 131 상봉 듀오트리스 지하 1층,070-4726-7775 ,https://www.bookslibro.com,2,새책방      ,37.59740662,127.0921776,,무료
219,219,3028,북스토어17,313,마포구,독막로5길 33,0507-1436-0531,https://bookstore17.com,2,새책방      ,37.54943953,126.9185605,https://www.instagram.com/bookstore17_photobox,무료
220,220,2458,북스피리언스,313,마포구,마포구 연남로11길 34 지하1층,02-324-2399,https://smartstore.naver.com/booksperience,2,새책방      ,37.56540751,126.9170931,https://www.instagram.com/booksperience,무료
221,221,2459,북악서점,307,성북구,성북구 정릉로 159,02-942-0649,,2,새책방      ,37.60779676,127.0027864,,무료
222,222,2460,북오피스,315,강서구,강서구 공항대로48길 47,02-2242-6460,,2,새책방      ,37.55261303,126.8545282,,무료
223,223,2785,북촌책방,300,종로구,종로구 북촌로5길 19-12,02-995-6630,https://blog.naver.com/bcbooks1201,1,헌책방      ,37.5789522,126.9842012,https://www.instagram.com/bookchonbookstore,무료
224,224,2996,북커스,300,종로구,종로구 평창30길 10 2층,02-394-4588,https://post.naver.com/bluzine?fbclid=IwAR0sKw4HJh8JkPmunzO6sNDEbtaARHpYA4NdehuSBRfWW9DPCZy6RCJrXgM,2,새책방      ,37.6109244,126.9751427,https://www.instagram.com/bookers_bookcafe,무료
225,225,2461,북티크,313,마포구,독막로31길 9 2층,0507-1394-1141,https://www.booktique.kr,2,새책방      ,37.55358661,126.9187818,https://www.instagram.com/booktique_bookshop,무료
226,226,3204,분당책선생,323,송파구,송파구 송파대로 425 문화빌딩 지하1층,02-424-4142,,1,헌책방      ,37.5046823,127.1071315,,무료
227,227,3186,비건책방 서울,312,서대문구,서대문구 가재울로2안길 29-14,0507-1340-0424,https://blog.naver.com/veganbooks_,2,새책방      ,37.57530743,126.9238625,https://www.instagram.com/veganbooks_,무료
228,228,2666,비엥북스,311,은평구,은평구 서오릉로 149 쿠아레비 구산점 내,0507-1411-7870,https://smartstore.naver.com/bienbooks,2,새책방      ,37.60590116,126.9223492,https://www.instagram.com/bienbooks ,무료
229,229,2465,비플랫폼(B-Platform),313,마포구,마포구 독막로2길 22 3층,070-4001-8388,http://blog.naver.com/b-platform,2,새책방      ,37.54763092,126.9144439,https://www.instagram.com/bplatform,무료
230,230,2466,비화림,300,종로구,종로구 창덕궁길 153 1층,0507-1362-0312,https://smartstore.naver.com/bihwarim_bookshop/,2,새책방      ,37.58298867,126.9873972,https://www.instagram.com/bihwarim_bookshop,무료
231,231,2467,사가정문고,306,중랑구,중랑구 사가정로 398,02-493-9544,,2,새책방      ,37.58028764,127.0888166,,무료
232,232,2469,사슴책방(성산점),313,마포구,마포구 성미산로13길 110,0507-1409-8092,https://www.deerbookshop.net,2,새책방      ,37.56576617,126.9162929,https://www.instagram.com/deer_bookshop,무료
233,233,2470,사유의 사유,309,도봉구,도봉구 방학로 3길 12,070-7799-0794,,2,새책방      ,37.6621909,127.0407489,https://www.instagram.com/sayu_books/,무료
234,234,2471,사이에 in 공간인흑석,319,동작구,동작구 흑석로5길 94,02-325-6563,https://blog.naver.com/saiebook,2,새책방      ,37.50928639,126.9588126,https://www.instagram.com/saiebook,무료
235,235,2474,사진책방 고래,300,종로구,종로구 자하문로 106,02-720-7274,https://smartstore.naver.com/photobooks-gorae,2,새책방      ,37.58537668,126.9703564,https://www.instagram.com/photobooks.gorae,무료
236,236,2475,사해책방 ,314,양천구,양천구 목동중앙북로 33-20,0507-1332-9208,https://blog.naver.com/kim_holiday,2,새책방      ,37.54864596,126.8682829,https://www.instagram.com/sahaebooks/ https://twitter.com/sahaebooks,무료
237,237,3029,산책자,313,마포구,성지길 36 3층,070-8658-2141,https://blog.naver.com/wordnbow,2,새책방      ,37.5471544,126.9129891,https://www.instagram.com/sanchaekja/,무료
238,238,2786,살롱 도스또옙스끼,311,은평구,은평구 가좌로 317 2층,0507-1347-7412,,1,헌책방      ,37.59580973,126.9097156,https://www.instagram.com/kdoeon,무료
239,239,2476,살롱드북,320,관악구,관악구 남부순환로231길 11,070-4007-2466,https://blog.naver.com/salon_book,2,새책방      ,37.48039477,126.9569792,http://instagram.com/salon_book,무료
240,240,2477,삼보서점문구,320,관악구,관악구 인헌9길 31,02-883-8598,,2,새책방      ,37.47280985,126.9685786,,무료
241,241,2478,삼환서점,324,강동구,강동구 구천면로 427,02-3428-1582,,2,새책방      ,37.55050639,127.1461468,,무료
242,242,2479,상계문고,310,노원구,노원구 동일로 1361 상계주공2단지상가 지하1층,02-931-9453,,2,새책방      ,37.65006498,127.0612842,,무료
243,243,2481,상상아이서점,315,강서구,강서구 강서로48길 39 2층 ,02-3664-8034,,2,새책방      ,37.5525607,126.8385922,,무료
244,244,2482,상상하는 삐삐,306,중랑구,중랑구 중랑천로 117 정광빌딩,02-491-0516,http://blog.daum.net/kalman99/,2,새책방      ,37.59570848,127.0720292,,무료
245,245,2483,상암누리문고,313,마포구,마포구 월드컵북로 396 누리꿈스퀘어 지하1층 1093호,0507-1313-2689,,2,새책방      ,37.57944191,126.8903226,,무료
246,246,2787,상현서림,306,중랑구,중랑구 답십리로77길 39,02-2275-5886,,1,헌책방      ,37.5733742,127.081476,https://www.instagram.com/sanghyunbookstore,무료
247,247,3041,새고서림,318,영등포구,영등포구 영신로39길 8-1 201호,0507-1441-2125,https://smartstore.naver.com/a_cat_at_dawn,2,새책방      ,37.52169042,126.900341,https://www.instagram.com/saego_seorim,무료
248,248,2484,새벽감성1집,314,양천구,양천구 월정로50길 16-8,0507-1365-1209,https://blog.naver.com/dawnsense,2,새책방      ,37.54133887,126.8316923,https://www.instagram.com/dawnsense_1.zip,무료
249,249,2983,샘서림,322,강남구,개포로 218,02-578-1041,,2,새책방      ,37.47850244,127.046661,,무료
250,250,2986,생각의 주인,320,관악구,솔밭로7길 17,070-7604-7104,https://blog.naver.com/maumhee,2,새책방      ,37.48027196,126.9633731,https://www.instagram.com/master_of_thought20,무료
251,251,2788,서문서점,301,중구,중구 청계천로 274 다87호,02-2274-6482,,1,헌책방      ,37.56942586,127.0080476,https://www.instagram.com/seomunbook,무료
252,252,2485,서사 당신의 서재,302,용산구,용산구 대사관로 6길 5 파크랜드빌딩  6층,0507-1371-9948,https://seosa.co.kr,2,새책방      ,37.53411088,127.0003518,https://www.instagram.com/seosa_yourlibrary,무료
253,253,3150,서울 셀렉션,300,종로구,종로구 삼청로 6,02-734-9565,https://www.seoulselection.com/bookstore/default/index.php,2,새책방      ,37.57649164,126.9798626,https://www.instagram.com/seoul__selection/,무료
254,254,2486,서울의 시간을 그리다,312,서대문구,서대문구 독립문로 31-6,070-4114-6711,https://smartstore.naver.com/seoultimesketch/,2,새책방      ,37.56945215,126.9616107,https://www.instagram.com/seoul.timesketch,무료
255,255,2487,서울책방,301,중구,"중구 세종대로 110, 지하 1층",02-739-7033,http://store.seoul.go.kr,2,새책방      ,37.56631742,126.9778292,,무료
256,256,3205,서울책보고,323,송파구,송파구 오금로 1,02-6951-4979,https://seoulbookbogo.kr,1,헌책방      ,37.50712541,127.1189589,https://www.instagram.com/seoulbookbogo_official,무료
257,257,2488,서일서적,306,중랑구,중랑구 용마산로 86길 15,02-491-0443,,2,새책방      ,37.58634569,127.0961214,,무료
258,258,2489,서적백화점,322,강남구,강남구 선릉로 325 지하1층,02-577-9876,,2,새책방      ,37.49859224,127.0515659,,무료
259,259,2491,서점 리스본,313,마포구,마포구 성미산로23길 60  1~3층,,http://www.bookshoplisbon.com,2,새책방      ,37.56610369,126.9200702,https://www.instagram.com/bookshoplisbon,무료
260,260,3151,서점 마므레,312,서대문구,서대문구 명지대길 10 2층,0507-1339-8673,,2,새책방      ,37.58079402,126.925122,https://www.instagram.com/mamrebooks,무료
261,261,2492,서점 정치발전소,313,마포구,마포구 독막로7길 8 2층,02-6384-3225,https://www.powerplantkr.com,2,새책방      ,37.54825593,126.9187559,https://www.instagram.com/powerplantkr/,무료
262,262,2493,서점극장 라블레,313,마포구,마포구 백범로25길 5,02-6368-1578,https://rabelais.kr,2,새책방      ,37.54638507,126.9462977,https://www.instagram.com/rabelais.kr,무료
263,263,2494,서초서적문구,321,서초구,서초구 효령로 224,02-583-4389,,2,새책방      ,37.48329291,127.0085356,,무료
264,264,2495,서촌 그 책방,300,종로구,종로구 자하문로5가길 30-1,,https://blog.naver.com/seochonbooks,2,새책방      ,37.57875851,126.9703205,https://www.instagram.com/seochonbooks,무료
265,265,2496,서향관,301,중구,중구 을지로20길 32-3 203호,,,2,새책방      ,37.56498098,126.9951959,https://www.instagram.com/paperfragranceroom,무료
266,266,2497,석계문고,310,노원구,노원구 화랑로 349 지하1층,02-949-6148,,2,새책방      ,37.61537186,127.0666738,,무료
267,267,2498,선경문고,322,강남구,강남구 삼성로 311 제동빌딩,02-563-5111,,2,새책방      ,37.49964489,127.0601506,,무료
268,268,2499,선문고(선서적),317,금천구,금천구 독산로74길 6,02-869-4027,,2,새책방      ,37.46866206,126.9026334,,무료
269,269,3202,선영씨 책방,309,도봉구,도봉구 삼양로 534-6 2층,,,2,새책방      ,37.65077694,127.0135443,https://www.instagram.com/sunyoungs_bookshop,무료
270,270,2500,선유서가,318,영등포구,영등포구 양평로30가길 22,0507-1377-1711,https://blog.naver.com/d-holic,2,새책방      ,37.54278668,126.8907204,https://www.instagram.com/seonyu_seoga,무료
271,271,3152,성북동책방,307,성북구,성북구 동소문로13가길 36,,https://blog.naver.com/obadiah43,2,새책방      ,37.59140788,127.0110889,https://www.instagram.com/sungbuk_books_official/,무료
272,272,2501,세륜서점,323,송파구,송파구 오금로31길 13,02-415-2232,,2,새책방      ,37.5071717,127.1216332,,무료
273,273,2502,세신서점,323,송파구,송파구 양산로 14,02-402-4237,,2,새책방      ,37.49023952,127.1437991,,무료
274,274,3261,세화서점,321,서초구,신반포로 100  B09호,0507-1418-9334,,2,새책방      ,37.50308493,126.9956936,,무료
275,275,3138,세화영어서점,307,성북구,성북구 삼양로 15-2,,https://www.facebook.com/sehwa.eb,2,새책방      ,37.60466914,127.0246461,https://www.instagram.com/sehwa.eb,무료
276,276,3122,소나기 그림책방,312,서대문구,서대문구 독립문로 32 2층,0507-1357-7454,https://blog.naver.com/sonagibooks,2,새책방      ,37.56928427,126.9612723,https://www.instagram.com/sonagi_picturebookshop,무료
277,277,2503,소리북스,307,성북구,성북구 성북로13길2 2층,02-736-9701,http://www.soribooks.com,2,새책방      ,37.59274943,127.0016836,https://www.instagram.com/soribooks/,무료
278,278,2504,소수책방,301,중구,중구 다산로20길 26 2층,0507-1303-2439,https://smartstore.naver.com/sosoobook/,2,새책방      ,37.55681312,127.0135208,https://www.instagram.com/sosoobook/,무료
279,279,3203,소요서가,301,중구,"중구 청계천로 160 청계세운상가 바열 309, 310호",02-2272-1517,https://soyoseoga.com,2,새책방      ,37.56797986,126.9953651,https://www.instagram.com/soyoseoga,무료
280,280,2505,소원책담,300,종로구,종로구 혜화로 6길 17,0507-1485-8829,https://swbookstory.tistory.com/,2,새책방      ,37.58756324,127.0007693,https://www.instagram.com/swbookstory/,무료
281,281,2506,송파문고,323,송파구,송파구 송파대로37길 70 지하1층,02-416-4837,,2,새책방      ,37.49965476,127.1046404,,무료
282,282,2789,송파서적,323,송파구,송파구 송파대로32길 8 1층,02-402-4770,,1,헌책방      ,37.49681342,127.117596,,무료
283,283,2507,수도서림,304,광진구,광진구 용마산로22길 9,02-454-1062,,2,새책방      ,37.56369692,127.0875821,,무료
284,284,3030,수수책방,313,마포구,토정로 8-7,0507-1341-3625,,2,새책방      ,37.54538549492255,126.91180454986436,https://www.instagram.com/susu_books,무료
285,285,2991,수수한 책방,308,강북구,솔매로50길 81,0507-1376-6994,https://blog.naver.com/kitm123,2,새책방      ,37.622873402325766,127.02840496350396,https://www.instagram.com/susuhan.books,무료
286,286,2508,숙명도서,302,용산구,용산구 청파로47길 88,02-717-9139,,2,새책방      ,37.54514394,126.965943,,무료
287,287,2509,순정책방,324,강동구,강동구 동남로65길 15-5,070-4062-8202,http://blog.naver.com/soonjung_book,2,새책방      ,37.54747901,127.1550007,https://www.instagram.com/soonjungbookstore,무료
288,288,2997,순화동천,301,중구,서소문로9길 28,02-772-9001,http://blog.naver.com/sunhwadongcheon ,2,새책방      ,37.56361935920111,126.9703136497192,https://www.instagram.com/sunhwadongcheon_official ,무료
289,289,2790,숨어있는 책,313,마포구,마포구 신촌로12길 30 지하,02-333-1041,,1,헌책방      ,37.55503325,126.9325099,https://www.instagram.com/hiddenbook_sinchon,무료
290,290,2510,숭실서적,311,은평구,은평구 은평터널로7길 17-2 ,02-374-8917,,2,새책방      ,37.59231015,126.9044129,,무료
291,291,2512,스쿨서점,319,동작구,동작구 대방동길 71,02-816-4498,,2,새책방      ,37.50445617,126.9251902,http://www.facebook.com/sbook4498,무료
292,292,2513,스타더스트,300,종로구,종로구 새문안로5길 5-7 3층,,https://blog.naver.com/stardustbookcafe https://smartstore.naver.com/stardustbookcafe,2,새책방      ,37.57069897,126.9747221,https://www.instagram.com/stardust_bookcafe,무료
293,293,2514,스토리지북앤필름,302,용산구,용산구 신흥로 115-1,070-5103-9975,http://www.storagebookandfilm.com,2,새책방      ,37.54474562,126.9831368,https://www.instagram.com/storagebookandfilm,무료
294,294,3301,스토리지북앤필름(로터리점),302,용산구,용산구 신흥로36길 5,,http://www.storagebookandfilm.com,2,새책방      ,37.54650528,126.981948,https://www.instagram.com/at_storage,무료
295,295,3042,스토리지북앤필름(후암점),302,용산구,용산구 두텁바위로 94-1,0507-1491-9979,http://www.storagebookandfilm.com,2,새책방      ,37.54741549,126.9820979,https://www.instagram.com/storage_huam,무료
296,296,2516,스토리텔링,303,성동구,성동구 서울숲4길 13,02-465-1078,,2,새책방      ,37.54756905,127.0424499,https://www.instagram.com/ck_storytelling,무료
297,297,2518,스페인책방,301,중구,중구 퇴계로 36길 29 기남빌딩 5층 603호,0507-1311-7694,https://www.spainbookshop.com,2,새책방      ,37.56054635,126.9950575,https://www.instagram.com/spainbookshop,무료
298,298,2519,스프링 플레어,313,마포구,마포구 동교로27길 53,070-7167-1846,,2,새책방      ,37.56013049,126.9209422,https://www.instagram.com/springflare.kr,무료
299,299,3123,스프링한국어서점,313,마포구,마포구 양화로 193,0507-1384-8363,http://www.springkorean.com,2,새책방      ,37.55884094,126.9258762,,무료
300,300,3181,시시소소,313,마포구,도화2길 27 도화아파트먼트 마포 3층,0507-1494-5590,https://www.sisi-soso.com,2,새책방      ,37.5395405,126.9494904,https://www.instagram.com/sisisosoplaykit,무료
301,301,2520,시인서점,314,양천구,양천구 오목로 41,02-2601-4798,,2,새책방      ,37.52219667,126.8422007,,무료
302,302,2521,시절인연,307,성북구,성북구 보국문로16가길 43-20,0507-1362-9079,https://smartstore.naver.com/_sesonbooks,2,새책방      ,37.61268385,127.0113192,https://www.instagram.com/_seasonbooks,무료
303,303,2791,신고서점,309,도봉구,도봉구 삼양로144길 21,02-960-6423,http://singoro.com,1,헌책방      ,37.65175543,127.0141334,,무료
304,304,2522,신공손서점,306,중랑구,중랑구 봉화산로 194 신내동 신아타운 지하 1층,02-3421-1662,,2,새책방      ,37.60645263,127.094707,,무료
305,305,2523,신동아문고,318,영등포구,영등포구 영등포로 382-1,02-836-1608,,2,새책방      ,37.513501,126.9205137,,무료
306,306,3124,신명문고,309,도봉구,도봉구 도봉로 705 지하1층,02-955-9088,,2,새책방      ,37.66744295,127.0428854,,무료
307,307,2524,신목서점,314,양천구,양천구 목동동로 130,02-2647-7216,,2,새책방      ,37.514999,126.8712369,,무료
308,308,2525,신성서림,300,종로구,종로구 종로 258 대학천상가(덕성빌딩),02-2265-9579,,2,새책방      ,37.5706569,127.0064795,,무료
309,309,2792,신일서점,308,강북구,강북구 덕릉로 45,02-908-9552,,1,헌책방      ,37.63464706,127.0188555,,무료
310,310,2526,신협서점,300,종로구,종로구 종로 258,02-2266-2718,,2,새책방      ,37.5706569,127.0064795,,무료
311,311,2527,심지전문서적,322,강남구,강남구 논현로 723 창성빌딩 1층,02-543-3476,http://www.simjibook.com,2,새책방      ,37.51660565,127.0292593,https://www.instagram.com/simjibook/,무료
312,312,2528,쌈북서점,314,양천구,양천구 목동서로 277 대림아크로텔 108호,02-2643-9319 ,,2,새책방      ,37.52245427,126.8694393,,무료
313,313,2529,쌍문문고,309,도봉구,도봉구 도봉로 482 우성빌딩 지하1층,02-996-0559,,2,새책방      ,37.64846313,127.0350076,,무료
314,314,2286,쎄임더스트,303,성동구,성동구 성수일로 44-1 2층,070-7954-1217,http://www.samedust.org,2,새책방      ,37.54433654,127.0498222,https://www.instagram.com/same_dust,무료
315,315,2530,쏘피아 서점,312,서대문구,서대문구 충정로 53 13층,02-362-2036,,2,새책방      ,37.56375123,126.9646327,,무료
316,316,2531,쓸모의 발견,309,도봉구,도봉구 우이천로42길 37 ,,,2,새책방      ,37.65441743,127.018406,https://www.instagram.com/sslmo_balgyeon,무료
317,317,2532,아운트,324,강동구,강동구 양재대로 126길 54 101호,0507-1351-3130,https://blog.naver.com/aund_,2,새책방      ,37.54334035,127.1453044,www.instagram.com/a.und_,무료
318,318,2533,아인서점,313,마포구,마포구 월드컵로3길 31-30 3층,070-8667-0033,http://ainbooks.kr/,2,새책방      ,37.54991741,126.9109455,https://www.instagram.com/ain.books,무료
319,319,2534,아직 독립 못 한 책방,313,마포구,마포대로 190 푸른약국 내,,,2,새책방      ,37.55091751,126.9557907,https://www.instagram.com/a_dok_bang,무료
320,320,2535,아침달 북스토어,313,마포구,마포구 성미산로 153-16 2층,02-3446-5238 ,https://blog.naver.com/achimdalbooks,2,새책방      ,37.56510695,126.9231097,https://www.instagram.com/achimdal.books,무료
321,321,2537,아크앤북(이마트 더타운몰 월계점),310,노원구,노원구 마들로3길 15 이마트 월계점 2층,070-4281-2617,,2,새책방      ,37.62650936,127.0619798,,무료
322,322,2538,아크앤북(이태원점),302,용산구,용산구 장문로 23 지하 1층,0507-1354-2787,,2,새책방      ,37.52856556,126.9931075,,무료
323,323,2539,아크앤북(잠실 롯데월드몰점),323,송파구,송파구 올림픽로 300 롯데월드몰 4층,02-3213-4490,,2,새책방      ,37.51375196,127.1044469,,무료
324,324,2536,아크앤북(현대 신촌점),312,서대문구,서대문구 연세로 13 현대백화점 유플렉스 12층,0507-1349-1702,,2,새책방      ,37.55673784,126.9365597,,무료
325,325,2540,악어책방,315,강서구,강서구 강서로45다길 30-27 초록아파트 단지내 상가동 102호,0507-1314-3017,,2,새책방      ,37.54528183,126.8329703,https://www.instagram.com/akoebook,무료
326,326,2541,안도북스,313,마포구,마포구 월드컵북로6길 87 2층 201호,,http://blog.naver.com/ando78,2,새책방      ,37.56028501,126.9225799,https://www.instagram.com/ando_books,무료
327,327,2793,알라딘 중고매장(가로수길점),322,강남구,강남구 강남대로 152길45,1544-2514,,1,헌책방      ,37.51839445,127.0229862,,무료
328,328,2794,알라딘 중고매장(강남점),322,강남구,강남구 강남대로 438 지하 1층,1544-2514,,1,헌책방      ,37.50164281,127.0263361,,무료
329,329,2795,알라딘 중고매장(강서홈플러스점),315,강서구,강서구 화곡로 398 홈플러스강서점 4층,1544-2514,,1,헌책방      ,37.55846996,126.854819,,무료
330,330,2796,알라딘 중고매장(건대점),304,광진구,광진구 능동로 111 지하 1층,1544-2514,,1,헌책방      ,37.54106291,127.0708594,,무료
331,331,2797,알라딘 중고매장(노원역점),310,노원구,노원구 동일로 1413 남성빌딩 지하 1층,1544-2514,,1,헌책방      ,37.65476885,127.0600193,,무료
332,332,2798,알라딘 중고매장(대학로점),300,종로구,종로구 창경궁로 236 이화빌딩 지하 1층,1544-2514,,1,헌책방      ,37.58264363,126.9988342,,무료
333,333,2799,알라딘 중고매장(서울대입구역점),320,관악구,관악구 관악로 171 지하 1층,1544-2514,,1,헌책방      ,37.48055351,126.9522333,,무료
334,334,2800,알라딘 중고매장(수유점),308,강북구,강북구 도봉로 342 2층,1544-2514,,1,헌책방      ,37.63803455,127.0261287,,무료
335,335,2801,알라딘 중고매장(신림점),320,관악구,관악구 신림로 318 청암위브 지하 1층,1544-2514,,1,헌책방      ,37.48257543,126.9302529,,무료
336,336,2802,알라딘 중고매장(신촌점),312,서대문구,서대문구 연세로 21 지하 1층,1544-2514,,1,헌책방      ,37.55757241,126.9366783,,무료
337,337,2803,알라딘 중고매장(연신내점),311,은평구,은평구 연서로 214,1544-2514,,1,헌책방      ,37.6174451,126.9199521,,무료
338,338,2804,알라딘 중고매장(영등포점),318,영등포구,영등포구 영중로 12 에쉐르 빌딩 지하 2층,1544-2514,,1,헌책방      ,37.51761761,126.906507,,무료
339,339,2805,알라딘 중고매장(이수역점),319,동작구,동작구 사당로 310 지하 1층,1544-2514,,1,헌책방      ,37.48501514,126.9810218,,무료
340,340,2806,알라딘 중고매장(잠실롯데월드타워점),323,송파구,송파구 올림픽로 305 지하 1층,1544-2514,,1,헌책방      ,37.51497717,127.1042164,,무료
341,341,2807,알라딘 중고매장(잠실새내역점),323,송파구,송파구 올림픽로 124 지하 1층,1544-2514,,1,헌책방      ,37.51139373,127.084435,,무료
342,342,2808,알라딘 중고매장(종로점),300,종로구,종로구 삼일대로 395 지하 1층,1544-2514,,1,헌책방      ,37.56990362,126.9873599,,무료
343,343,2809,알라딘 중고매장(합정점),313,마포구,마포구 독막로 5 지하 1층,1544-2514,,1,헌책방      ,37.54901989,126.9143079,,무료
344,344,2542,알지문구서점,324,강동구,강동구 고덕로 87 2층,02-481-2143,,2,새책방      ,37.55491243,127.1349605,,무료
345,345,2543,알키미스타,311,은평구,은평구 응암로9길 24,02-6104-5803,https://smartstore.naver.com/alquimistar,2,새책방      ,37.58785313,126.9138939,https://www.instagram.com/alquimi_star,무료
346,346,2545,얄라북스,301,중구,"중구 을지로 114-6, 606호",02-2274-3331,https://studioyalla.com/,2,새책방      ,37.56583385,126.990609,,무료
347,347,2546,양곡서림,303,성동구,성동구 난계로 114-31 302호,02-722-9641,,2,새책방      ,37.56123125,127.0259523,,무료
348,348,2548,양지서점,303,성동구,성동구 금호로 173 신금호파크자이상가동 24호,02-2234-2693,,2,새책방      ,37.55628641,127.018153,,무료
349,349,2547,양지서점,320,관악구,관악구 인헌6길 24,02-884-5495,,2,새책방      ,37.47413123,126.9655067,,무료
350,350,2549,양현책세상,319,동작구,동작구 노량진로14길 9,02-812-9070,http://www.y-book.com/,2,새책방      ,37.51301288,126.942128,,무료
351,351,2550,어나더더블유,319,동작구,동작구 사당로30길 42,,https://blog.naver.com/shkb85,2,새책방      ,37.48308966,126.9808342,https://www.instagram.com/another_writing,무료
352,352,2551,어쩌다 산책,300,종로구,종로구 동숭길 101 지하 1층,02-747-7147,,2,새책방      ,37.58246148,127.00402,https://www.instagram.com/ujd.promenade,무료
353,353,2552,어쩌다책방,313,마포구,마포구 월드컵로 19길 74,070-5121-5629,https://www.facebook.com/uhjjuhdah.bookshop,2,새책방      ,37.5543449,126.9069541,https://www.instagram.com/ujd.bookshop,무료
354,354,2553,에덴서점,314,양천구,양천구 오목로 203,02-2605-8598,,2,새책방      ,37.52570079,126.8599537,,무료
355,355,3021,에이포서점,319,동작구,만양로8길 68 지하1층,02-821-0158,http://www.a4book.net,2,새책방      ,37.51045271,126.9458057,,무료
356,356,2555,엘지트윈문고(선덕점),309,도봉구,도봉구 시루봉로 57 ,02-999-2117,,2,새책방      ,37.65593119,127.0275217,,무료
357,357,2556,엘지트윈문고(쌍문점),309,도봉구,도봉구 도당로 6,02-996-8324,,2,새책방      ,37.65871187,127.0353712,,무료
358,358,2557,엠프티폴더스,320,관악구,관악구 행운1길 70 1호,0507-1302-4257,,2,새책방      ,37.48173865,126.9565479,https://www.instagram.com/emptyfolders,무료
359,359,2558,여기서울 149쪽,301,중구,중구 서소문로6길 33,0507-1456-0192,,2,새책방      ,37.55967957,126.9672604,https://www.instagram.com/here.149p/,무료
360,360,2921,여행마을,313,마포구,월드컵로17길 57 지하1층,0507-1495-8067,https://smartstore.naver.com/traveltown_book,2,새책방      ,37.55486135,126.907757,https://www.instagram.com/traveltown_book,무료
361,361,2559,역사책방,300,종로구,종로구 자하문로10길 24,02-733-8348,https://historybook.kr,2,새책방      ,37.57927999,126.9728467,https://www.instagram.com/historybook.kr,무료
362,362,2810,연도서,320,관악구,관악구 남부순환로 1395 성우빌딩,02-868-2466,http://www.yeonvideo.co.kr,1,헌책방      ,37.48049394,126.9057465,,무료
363,363,2561,연신내문고,311,은평구,은평구 통일로 861 범일빌딩 지하 1층,02-352-7600,http://www.ysnbook.com/,2,새책방      ,37.61978504,126.9201939,https://www.instagram.com/ysnbooks,무료
364,364,2562,연희서점,321,서초구,서초구 서초중앙로24길 43 유원아파트 상가 113호,02-595-9773,,2,새책방      ,37.49594752,127.0189851,,무료
365,365,2564,열린문고,306,중랑구,중랑구 공릉로2가길 6,02-977-9313,,2,새책방      ,37.61244926,127.078762,https://www.instagram.com/mookdong_openbook/,무료
366,366,2563,열린문고,316,구로구,구로구 경인로47다길 4,02-2619-9724,,2,새책방      ,37.50342595,126.863985,,무료
367,367,2811,열린책방,315,강서구,강서구 등촌로35길 160 지하 1층,02-2653-7122,,1,헌책방      ,37.53593436,126.8625633,,무료
368,368,2812,영광서점,300,종로구,종로구 종로58길 18,02-2252-6063,,1,헌책방      ,37.57269831,127.0176756,,무료
369,369,2565,영일서점,315,강서구,강서구 등촌로 39길 7,02-2651-1893,,2,새책방      ,37.54548307,126.8618004,,무료
370,370,2566,영파문고,323,송파구,송파구 올림픽로575 풍납동우체국,02-474-3700,,2,새책방      ,37.53334505,127.1211601,,무료
371,371,2567,영풍문고(가산마리오점),317,금천구,금천구 벚꽃로 266 마리오아울렛 3관 6층,02-2067-3820,,2,새책방      ,37.47844577,126.8850808,,무료
372,372,2568,영풍문고(강남역점),322,강남구,강남구 강남대로 408 YBM어학센터 2층,02-569-9070,,2,새책방      ,37.49921703,127.027537,,무료
373,373,2569,영풍문고(강남포스코점),322,강남구,강남구 테헤란로 440 포스코센터 지하 1층,02-3452-3112,,2,새책방      ,37.50581497,127.056131,,무료
374,374,2570,영풍문고(김포공항롯데점),315,강서구,강서구 하늘길38 롯데몰 김포공항 스카이파크 GF층,02-6116-5541,,2,새책방      ,37.57136985,126.8029604,,무료
375,375,2571,영풍문고(미아롯데점),308,강북구,강북구 도봉로 62 롯데백화점 미아점 6층,02-944-2651,,2,새책방      ,37.61459298,127.0305177,,무료
376,376,2572,영풍문고(사당역점),321,서초구,서초구 방배천로 11 사당파스텔시티 지하 2층,02-3487-6213,,2,새책방      ,37.47770076,126.9822361,,무료
377,377,2573,영풍문고(스타필드코엑스몰점),322,강남구,강남구 영동대로 513 스타필드 코엑스몰 지하 1층 J101A호,02-6002-2718,,2,새책방      ,37.51182391,127.059159,,무료
378,378,2574,영풍문고(신림타임스트림점),320,관악구,관악구 신림로 330 신림타임스트림 7층,02-889-9675  ,,2,새책방      ,37.48385134,126.9302345,,무료
379,379,2575,영풍문고(여의도IFC몰점),318,영등포구,영등포구 국제금융로 10 IFC몰 L2층,02-6137-5254,,2,새책방      ,37.52517752,126.9248767,,무료
380,380,2576,영풍문고(왕십리역점),303,성동구,성동구 왕십리광장로 17 비트플렉스 3층,02-2200-1600,,2,새책방      ,37.56144175,127.0383942,,무료
381,381,2577,영풍문고(용산아이파크몰점),302,용산구,용산구 한강대로23길 55 아이파크몰 리빙파크 3층,02-2012-0828,,2,새책방      ,37.5297718,126.9647415,,무료
382,382,2578,영풍문고(종각종로본점),300,종로구,"종로구 청계천로 41 영풍빌딩 지하 1,2층",1522-2776,,2,새책방      ,37.56966797,126.9821793,,무료
383,383,2579,영풍문고(홍대점),313,마포구,마포구 양화로 161 지하 2층,02-2250-7733,,2,새책방      ,37.55693622,126.9233156,https://www.instagram.com/yp_hongdae/,무료
384,384,2580,예나글방,322,강남구,강남구 삼성로 151 선경상가 지하1층 13호,02-562-4494,,2,새책방      ,37.49315498,127.063,,무료
385,385,2581,예람서점,303,성동구,성동구 고산자로 207 ,02-2292-2276,,2,새책방      ,37.5586754,127.0337365,,무료
386,386,2582,예림문고,315,강서구,강서구 곰달래로 227 지하 1층,02-2644-9182,,2,새책방      ,37.53184428,126.858304,,무료
387,387,2586,예일문고,309,도봉구,도봉구 노해로67길 2 지하1층,02-995-5206,,2,새책방      ,37.65243024,127.0500283,,무료
388,388,2587,오에프알,300,종로구,종로구 자하문로12길 11-14,02-722-9357,https://mirabelle.shop,2,새책방      ,37.58014127,126.971796,https://www.instagram.com/ofrseoul,무료
389,389,2588,오프 투 얼론(off to alone),300,종로구,종로구 자하문로15길 26-4,,https://www.facebook.com/offtoalone,2,새책방      ,37.58080339,126.9695282,https://www.instagram.com/off_to_alone,무료
390,390,2589,옥수서재,303,성동구,성동구 한림말1길 16-1 지하1층,,,2,새책방      ,37.54273673,127.0164133,https://www.instagram.com/oksubook,무료
391,391,2590,온고당서점,313,마포구,마포구 월드컵북로 41,0507-1403-9313,http://ongodangbook.co.kr/,2,새책방      ,37.55793797,126.9181133,https://www.instagram.com/ongodangbook/,무료
392,392,2591,올오어낫싱,317,금천구,금천구 시흥대로 315 2층 204호,02-867-7595,http://allornothing.modoo.at/,2,새책방      ,37.46099111,126.8962652,https://www.instagram.com/allornothing_deardark,무료
393,393,2592,와룡서적문구,302,용산구,용산구 장문로 97,02-798-0577,,2,새책방      ,37.52625973,127.0003988,,무료
394,394,2593,와우북트윈점,318,영등포구,영등포구 여의대로 128 동관 지하1층,02-783-2929,,2,새책방      ,37.5279271,126.9292412,,무료
395,395,2595,우리서점,322,강남구,강남구 개포로82길 13-15 남강빌딩 2층 202호,02-3411-3215,,2,새책방      ,37.48882051,127.0683478,,무료
396,396,2596,우면한솔서점,321,서초구,서초구 태봉로 70 우면프라자 지하1층,02-529-5949,,2,새책방      ,37.46453818,127.025583,,무료
397,397,2984,월드매거진,322,강남구,논현로149길 75,0507-1414-6922,http://www.magazinebook.co.kr,2,새책방      ,37.51634813,127.0227586,http://www.instagram.com/worldmag.co.kr,무료
398,398,2993,월드문고,307,성북구,동소문로 59 지하,02-925-4885,https://smartstore.naver.com/kimbookstore,2,새책방      ,37.59144609,127.0120022,,무료
399,399,2597,월촌문고,314,양천구,양천구 목동서로 35 목동프라자 지하 1층,0507-1413-4144,,2,새책방      ,37.53763811,126.8821121,,무료
400,400,2598,위트 앤 시니컬,300,종로구,종로구 창경궁로 271-1 동양서림 2층,0507-1322-6015,http://witncynical.com,2,새책방      ,37.58556826,127.0006014,https://www.instagram.com/witncynical,무료
401,401,2599,유어마인드,312,서대문구,서대문구 연희로11라길 10-6 2층,070-8821-8990,http://your-mind.com,2,새책방      ,37.56839735,126.9303035,https://www.instagram.com/your_mind_com,무료
402,402,2600,유한서적,300,종로구,종로구 종로 258 덕성빌딩 A-6호,02-2279-5936,,2,새책방      ,37.5706569,127.0064795,,무료
403,403,2601,은마서적,322,강남구,강남구 삼성로 212 은마상가 2층,02-562-7660,,2,새책방      ,37.49961577,127.0659154,,무료
404,404,2602,은평문고,311,은평구,은평구 응암로 188 2층,0507-1376-5861,,2,새책방      ,37.58962535,126.9173805,,무료
405,405,2603,이그잼플러스,319,동작구,동작구 노량진로14가길 16,02-823-2223,http://www.examplus.net,2,새책방      ,37.51260133,126.9434826,,무료
406,406,2604,이나영책방,320,관악구,관악구 신사로 66-1 3층,0507-1498-4402,,2,새책방      ,37.48545486,126.9103316,https://www.instagram.com/nayounggam_,무료
407,407,2605,이라선,300,종로구,종로구 효자로7길 5 1층,0507-1413-0908,https://smartstore.naver.com/irasun,2,새책방      ,37.57886927,126.9734631,https://www.instagram.com/irasun_official,무료
408,408,2606,이레서적,322,강남구,강남구 선릉로 843 1층,02-515-3990,http://www.eraebook.co.kr,2,새책방      ,37.52721588,127.0402104,https://www.instagram.com/eraebook.co.kr,무료
409,409,2607,이루리북스(구 프레드릭북스),313,마포구,마포구 독막로 320 태영데시앙루브 오피스텔 지하1층 B105호,0507-1338-1027,https://www.frederic.co.kr/,2,새책방      ,37.5429645,126.9478735,https://www.instagram.com/yrurybooks,무료
410,410,3130,이마녀 중국어 스프,313,마포구,마포구 어울마당로5길 52 2층,02-333-1314,http://hululuc.com/,2,새책방      ,37.55008433,126.9179802,https://www.instagram.com/witchlee_chinese/,무료
411,411,2813,이상한 나라의 헌책방,311,은평구,은평구 서오릉로 18,070-7698-8903,http://www.2sangbook.com,1,헌책방      ,37.60290211,126.9262706,,무료
412,412,2608,이후북스,313,마포구,마포구 망원로4길 24 2층,,http://blog.naver.com/now_afterbooks,2,새책방      ,37.55560567,126.9019414,https://www.instagram.com/now_afterbooks,무료
413,413,2609,인덱스숍,304,광진구,광진구 아차산로 200 커먼그라운드 3층,02-2122-1259,http://smartstore.naver.com/theindexshop,2,새책방      ,37.54105663,127.0656692,https://www.instagram.com/indexshop.kr,무료
414,414,2611,일단불온 ,318,영등포구,영등포구 당산로18길 16-1,0507-1324-1802,https://brunch.co.kr/@lshts0802,2,새책방      ,37.52280209,126.8979259,https://www.instagram.com/bulon0802,무료
415,415,2612,일등문고,320,관악구,관악구 신림로 131 지하1층,02-2671-8434,,2,새책방      ,37.47095013,126.9346262,,무료
416,416,2613,일등서점,320,관악구,관악구 신림로128 지하1층,070-4151-3007,,2,새책방      ,37.47148749,126.935262,,무료
417,417,2614,일신서점,323,송파구,송파구 송파대로38길 2-9 110호,02-419-9184,,2,새책방      ,37.500149,127.1124484,,무료
418,418,2616,일일호일,300,종로구,종로구 자하문로 52,02-737-1101,https://www.11ho1.com/ ,2,새책방      ,37.58064682,126.971422,https://www.instagram.com/11ho1_bookshop,무료
419,419,3132,잉크앤페더,321,서초구,"서초구 반포대로 105 다안빌딩 지하 1,2층",02-3478-0505,https://www.inknfeather.com/,2,새책방      ,37.48951735,127.0084077,https://www.instagram.com/inknfeather/,무료
420,420,2617,자각몽,300,종로구,종로구 창경궁로 297-2,0507-1314-5152,,2,새책방      ,37.58733003,127.002783,https://www.instagram.com/artbooks_jgm,무료
421,421,3206,자고로,316,구로구,구로구 신도림로 20,070-7722-7009,,1,헌책방      ,37.50660167,126.8787518,,무료
422,422,2987,자매서점,304,광진구,용마산로22길 19,02-457-3078,,2,새책방      ,37.56372452,127.0880314,https://www.facebook.com/Daewonsisters,무료
423,423,2618,자상한시간,320,관악구,관악구 중앙길 59,02-877-1015,https://blog.naver.com/vodvod279,2,새책방      ,37.48483855,126.9516219,https://www.instagram.com/jasanghansigan,무료
424,424,2619,자연책사랑,318,영등포구,영등포구 의사당대로97, 02-783-1949 ,,2,새책방      ,37.52251614,126.924586,https://blog.naver.com/jayun/222052792270,무료
425,425,2620,작업책방 씀,313,마포구,마포구 월드컵로13길 19-17,0507-1346-6818,http://smaratore.naver.com/booknwork_sseum,2,새책방      ,37.55520996,126.9092844,https://www.instagram.com/booknwork_sseum,무료
426,426,2622,장미문고,323,송파구,송파구 올림픽로35길 112,02-423-0872,,2,새책방      ,37.51788276,127.1018028,,무료
427,427,2623,장안현대문고,305,동대문구,동대문구 답십리로72길 36 지하1층,02-3394-5330,,2,새책방      ,37.57056887,127.0736561,,무료
428,428,2625,전농서적,305,동대문구,동대문구 사가정로 119,02-2245-2248,,2,새책방      ,37.57792922,127.0582716,,무료
429,429,2626,정다운문고,313,마포구,대흥로 94 크로바빌딩,02-703-2666,,2,새책방      ,37.54811146,126.9424459,,무료
430,430,2814,정연재,300,종로구,종로구 삼일대로 443,02-733-5023,,1,헌책방      ,37.5739568,126.9870551,,무료
431,431,2627,정용서점,300,종로구,종로구 율곡로22길 20,02-2266-7772,,2,새책방      ,37.57428634,127.0054828,,무료
432,432,2815,정은도서,301,중구,중구 청계천로 274 1층,02-2285-1784,,1,헌책방      ,37.56942586,127.0080476,,무료
433,433,2816,정은서점,312,서대문구,서대문구 증가로21길 38,02-305-9201,www.jbstore.co.kr,1,헌책방      ,37.57987372,126.9134846,,무료
434,434,2628,정의문고,309,도봉구,도봉구 노해로49길 69-4 ,02-907-4775,,2,새책방      ,37.65236471,127.0322852,,무료
435,435,2629,제로헌드레드,313,마포구,마포구 희우정로10길 33,,https://zerohundredbooks.com,2,새책방      ,37.55335783,126.905783,https://www.instagram.com/_zerohundred_,무료
436,436,2631,제일서점,318,영등포구,영등포구 의사당대로1 국회소통관, 02-780-6306 ,,2,새책방      ,37.53291197,126.9164039,,무료
437,437,2630,제일서점,300,종로구,종로 258-2 가로판매대,02-2279-7236,,2,새책방      ,37.5706569,127.0064795,,무료
438,438,2632,제일서점,319,동작구,동작구 노량진로16길 30 2층,02-822-3191,http://www.jeilbook.com/,2,새책방      ,37.51229097,126.9439375,,무료
439,439,2633,조은이책,313,마포구,마포구 월드컵북로27길 6,070-7617-6949 ,https://blog.naver.com/cchhoni,2,새책방      ,37.56724513,126.9091861,https://www.instagram.com/chouni.chaeg,무료
440,440,2634,종로문고,315,강서구,강서구 강서로 45길 39 지하1층,02-2608-4780,,2,새책방      ,37.54782406,126.8339729,,무료
441,441,2635,종로서적,300,종로구,종로구 종로 51 종로타워 지하 2층,0507-1418-2331,http://jongnobooks.com,2,새책방      ,37.57074514,126.9836114,https://www.instagram.com/jongnobooks_official/,무료
442,442,2636,종암문고,307,성북구,성북구 종암로 86 2층,02-915-6427,,2,새책방      ,37.5979157,127.035222,,무료
443,443,2637,종합서적,300,종로구,종로구 종로 258,02-2278-0939,,2,새책방      ,37.57141277,127.0075763,,무료
444,444,2817,좋은책많은데,310,노원구,노원구 공릉로43길 1 대상빌딩 지하,02-434-1716,,1,헌책방      ,37.62611722,127.0793351,,무료
445,445,2638,좋은책서점,320,관악구,관악구 난곡로 184 대원빌딩 2층,02-866-7474,https://goodbookstore.modoo.at/,2,새책방      ,37.47167022,126.9199812,,무료
446,446,3182,주책,306,중랑구,중랑구 면목로55길 57,02-435-9990,,2,새책방      ,37.58433505,127.0850742,https://www.instagram.com/JUCHAEG/,무료
447,447,2639,중곡서점,304,광진구,광진구 능동로49길 40,02-466-6235,,2,새책방      ,37.56502012,127.0812933,,무료
448,448,3134,중국서점,300,종로구,종로구 종로 19 르메이에르종로타운1,02-722-4688,http://www.chinabook.co.kr/,2,새책방      ,37.57084449,126.9799237,,무료
449,449,2818,중랑중고책갤러리,306,중랑구,중랑구 동일로 805-1,,,1,헌책방      ,37.60238514,127.0790051,,무료
450,450,2640,중화문고,306,중랑구,중랑구 동일로 769 농협 지하 1층,02-435-2400,,2,새책방      ,37.59906992,127.0795732,,무료
451,451,3183,중화서국,301,중구,중구 남대문로 52-5,02-777-0090,https://www.ichinabook.com,2,새책방      ,37.5621198,126.981717,https://www.instagram.com/ichinabook,무료
452,452,2641,지구불시착,310,노원구,노원구 화랑로 464,02-977-1318,https://smartstore.naver.com/unplannedearth,2,새책방      ,37.61850852,127.0788608,https://www.instagram.com/illruwa2,무료
453,453,2642,지금의세상,319,동작구,동작구 동작대로3길 41, ,https://smartstore.naver.com/the_present_world,2,새책방      ,37.47866795,126.9791947,https://www.instagram.com/the_present_world,무료
454,454,2643,지식을담다,307,성북구,성북구 고려대로24가길 17 소낭구 빌딩,02-927-8044,,2,새책방      ,37.58533485,127.030463,https://www.instagram.com/jidambooks/,무료
455,455,2644,직매도서,300,종로구,종로구 종로40길 4 A-14호,02-2273-1331,,2,새책방      ,37.5706569,127.0064795,,무료
456,456,2645,진부책방스튜디오,313,마포구,마포구 잔다리로 112 2층,070-5142-1600,https://www.youtube.com/channel/UC3XomNp3nmqI4eKmXjA4lag,2,새책방      ,37.55699893,126.9144013,https://www.instagram.com/jinbubooks,무료
457,457,2646,진영문고,321,서초구,서초구 방배로 60,02-3471-1997,,2,새책방      ,37.48017347,126.9988918,,무료
458,458,2647,진학서점,314,양천구,양천구 목동로 177,02-2692-0481,,2,새책방      ,37.52431307,126.8645137,,무료
459,459,2648,질문서점 인공위성,316,구로구,구로구 구로중앙로27가길 32,070-4642-0255,https://smartstore.naver.com/2lookbook,2,새책방      ,37.49760525,126.8864852,https://www.instagram.com/2lookbook,무료
460,460,2649,차일드북앤토이,303,성동구,성동구 무학봉길 62-2,02-2294-5752,https://smartstore.naver.com/booksalang/products/5419570415,2,새책방      ,37.56058999,127.0294949,,무료
461,461,2819,창문사,301,중구,중구 청계천로 274 다27호,02-2265-3227,,1,헌책방      ,37.56942586,127.0080476,,무료
462,462,2650,창문서점,308,강북구,강북구 월계로 55,02-982-4943,,2,새책방      ,37.6121807,127.035564,,무료
463,463,2651,채그로,313,마포구,"마포구 마포동 388-5 아리수빌딩 9층(8층, 6층)",0507-1341-0325,https://checkngrow.modoo.at,2,새책방      ,37.53565159,126.9442586,https://www.instagram.com/check_grow,무료
464,464,2652,채플린문구와서점,324,강동구,강동구 천호대로219길 64,02-428-0779,,2,새책방      ,37.54858872,127.1711451,,무료
465,465,2653,책가도,309,도봉구,도봉구 마들로11가길 6-25 7층,0507-1474-1386,https://pf.kakao.com/_lkBis,2,새책방      ,37.65222036,127.0490356,https://www.instagram.com/chaekgado,무료
466,466,2654,책과얽힘,322,강남구,강남구 선릉로 133길 15 1층,02-542-9383,,2,새책방      ,37.51794812,127.0395395,https://www.facebook.com/EntangledwithBooks,무료
467,467,2903,책그리고,321,서초구,방배천로 132,070-4001-9587,,2,새책방      ,37.48763619,126.9855902,https://www.instagram.com/booksand_cafe,무료
468,468,2655,책마을서점,318,영등포구,영등포구 여의대방로 25 보라매경남아너스빌 상가113호,02-844-8086,,2,새책방      ,37.49471168,126.9089784,,무료
469,469,2656,책바,312,서대문구,서대문구 연희맛로 24 101호,0507-1402-5858,https://smartstore.naver.com/chaegbar,2,새책방      ,37.56686587,126.9303565,https://www.instagram.com/chaegbar ,무료
470,470,3137,책방 봄,310,노원구,노원구 상계로3길 38-8 3층,02-931-5601,https://blog.naver.com/books_bom,2,새책방      ,37.65797486,127.0630404,https://www.instagram.com/books.bom/,무료
471,471,2660,책방 사춘기,313,마포구,마포구 월드컵북로9길 30,0507-1443-0086,https://smartstore.naver.com/sachungibook,2,새책방      ,37.5587493,126.9156593,https://www.instagram.com/sachungibook,무료
472,472,3153,책방 시나브로,311,은평구,은평구 응암로25길 11-1,0507-1356-1078,https://blog.naver.com/godlovelyhs,2,새책방      ,37.60872653,126.9110644,https://www.instagram.com/littlebylittlebook/,무료
473,473,3139,책방 이올시다,313,마포구,마포구 포은로 146,0507-1380-2230,https://blog.naver.com/bookshopiolsida,2,새책방      ,37.55962896,126.9031141,https://www.instagram.com/iolsida.bookshop/,무료
474,474,3101,책방 죄책감,302,용산구,용산구 청파로47길 8 2층,0507-1416-1197,,2,새책방      ,37.54495674,126.9700207,https://www.instagram.com/guilty_books_/,무료
475,475,2662,책방곱셈,313,마포구,마포구 성미산로29길 33,0507-1320-8063,https://blog.naver.com/bookstorethex,2,새책방      ,37.56534098,126.921804,https://www.instagram.com/bookstorethex,무료
476,476,2663,책방공책,316,구로구,연동로 287 그린빌라 상가 2층,050-5929-1076,https://blog.naver.com/paramsoldam,2,새책방      ,37.48729988,126.8232491,https://www.instagram.com/bookroom_note,무료
477,477,2664,책방난달,311,은평구,은평구 갈현로19길 10,0507-1340-5905,,2,새책방      ,37.62133549,126.9164744,https://www.instagram.com/bookstore.nandal/,무료
478,478,2667,책방서로,313,마포구,마포구 연남로11길 46,0507-1401-1322,https://www.facebook.com/seorobooks,2,새책방      ,37.56534984,126.9164513,https://www.instagram.com/seorobooks,무료
479,479,2661,책방연희,313,마포구,마포구 와우산로 35길 3 지하1층,0507-1429-5502 ,https://blog.naver.com/chaegbangyeonhui,2,새책방      ,37.55543547,126.9302187,https://www.instagram.com/chaegbangyeonhui,무료
480,480,3154,책방이웃,312,서대문구,서대문구 증가로30길 29-2,02-334-4045,https://smartstore.naver.com/neighborbooks,2,새책방      ,37.58425029,126.9134735,https://www.instagram.com/neighborbooks/?hl=ko,무료
481,481,2820,책방진호,319,동작구,동작구 장승배기로 164,02-815-9363,,1,헌책방      ,37.51231257,126.9403983,,무료
482,482,2672,책보냥,307,성북구,성북구 성북로10가길 21,0507-1330-9814,,2,새책방      ,37.59271921,127.0031444,https://www.instagram.com/chaekbonyang,무료
483,483,2821,책빵 중고서점,315,강서구,강서구 화곡로 268 대송빌딩 2층,02-400-8447,,1,헌책방      ,37.54853071,126.8471183,,무료
484,484,2822,책사랑,301,중구,중구 청계천로 274 다21호,02-2275-8809,,1,헌책방      ,37.56942586,127.0080476,,무료
485,485,3207,책여행,309,도봉구,도봉구 창동 254-37,02-990-8664,,1,헌책방      ,37.65297447,127.0452512,,무료
486,486,2673,책의기분,307,성북구,성북구 돌곶이로 9길 5-19,0507-1333-0299,,2,새책방      ,37.60616577,127.0611153,https://www.instagram.com/booksmood_/,무료
487,487,2823,책의향기서점,315,강서구,강서구 화곡로51길 18,02-2608-3982,,1,헌책방      ,37.55067701,126.8472822,,무료
488,488,2674,책이는당나귀,320,관악구,관악구 당곡6길 6,,https://blog.naver.com/check2dang,2,새책방      ,37.49147695,126.9280167,https://www.instagram.com/check2dang,무료
489,489,2675,책익다,313,마포구,마포구 와우산로29마길 10-3 2층,0507-1391-0315,,2,새책방      ,37.5556485,126.9264146,https://www.instagram.com/book.ikda,무료
490,490,2676,책인감,310,노원구,노원구 동일로 182길 63-1 2층, 0507-1302-7286,https://blog.naver.com/lcj2020a,2,새책방      ,37.62359186,127.077542,https://www.instagram.com/chaegingam,무료
491,491,2824,책읽는마을,300,종로구,종로구 종로58길 41,02-2234-6563,,1,헌책방      ,37.57175723,127.0187659,,무료
492,492,2678,책크인,313,마포구,마포구 성미산로29안길 29 2층,,https://smartstore.naver.com/checkin_books,2,새책방      ,37.56572223,126.9235043,https://www.instagram.com/checkin_books,무료
493,493,2825,청계천서점,300,종로구,종로구 종로58길 41,02-2234-5976,,1,헌책방      ,37.57175723,127.0187659,,무료
494,494,2680,청맥살롱,319,동작구,동작구 서달로 161-1 2층,02-822-1605,https://www.facebook.com/chmk.salon,2,새책방      ,37.5078135,126.9622592,https://www.instagram.com/seodalro161_1,무료
495,495,2682,초방책방,312,서대문구,서대문구 연대동문길 63,02-392-0277,http://www.chobang.com,2,새책방      ,37.56502729,126.9450319,https://www.instagram.com/chobang22,무료
496,496,2683,초원서점,304,광진구,광진구 뚝섬로 672,02-453-4570,,2,새책방      ,37.53175728,127.0841951,,무료
497,497,2684,초콜릿책방,312,서대문구,서대문구 연희로5길 46-11,02-332-7573,https://brunch.co.kr/magazine/chocobookshop,2,새책방      ,37.56555029,126.9268804,https://www.instagram.com/chocobookcafe,무료
498,498,2685,최인아책방,322,강남구,강남구 선릉로 521,02-2088-7330,,2,새책방      ,37.50605141,127.0479091,https://www.instagram.com/inabooks,무료
499,499,3022,최인아책방 GFC점,322,강남구,테헤란로 152 1층,02-561-7330,,2,새책방      ,37.50002424,127.0365086,https://www.instagram.com/inabooks__gfc,무료
500,500,2995,충암서점,311,은평구,은평구 가좌로5길 8,02-375-2997,,2,새책방      ,37.58614808,126.9216474,,무료
501,501,2686,카모메그림책방,303,성동구,성동구 무수막길 84, ,https://blog.naver.com/kamomebookshop,2,새책방      ,37.55341561,127.0206054,https://www.instagram.com/kamomebookstore,무료
502,502,2688,커넥티드북스토어 더 세운,300,종로구,종로구 청계천로 159 3층 외부 바열 328호,0507-1305-5475,https://smartstore.naver.com/kenektidxbookstore,2,새책방      ,37.56928143,126.9952397,https://www.instagram.com/kenektidxbookstore,무료
503,503,2689,커넥티드북스토어 더 을지,301,중구,중구 을지로20길 24-13,0507-1305-5475,https://smartstore.naver.com/kenektidxbookstore,2,새책방      ,37.56552508,126.9951245,https://www.instagram.com/kenektidxbookstore,무료
504,504,3201,커넥티드플래그십스토어,301,중구,중구 남대문로 67 1층,,https://m.blog.naver.com/kenektidxbookstore,2,새책방      ,37.56348677,126.9815302,https://www.instagram.com/kenektid_flagship,무료
505,505,2690,케이피에스,313,마포구,마포구 월드컵북로5가길 18,02-3141-9293,,2,새책방      ,37.56151974,126.9197455,,무료
506,506,2691,코믹갤러리,304,광진구,광진구 아차산로 208 상록빌딩 지하 1층,02-467-7800,https://www.comicgallery.co.kr,2,새책방      ,37.54106095,127.0664892,,무료
507,507,2692,코믹시티 성신북스,307,성북구,성북구 동소문로 111 지하 1층,02-3673-0877,,2,새책방      ,37.59339851,127.0172842,https://www.instagram.com/comma_comic_cafe,무료
508,508,2693,코믹존,320,관악구,관악구 신림로 300 웅산빌딩 지하1층,02-872-1717,http://blog.naver.com/jsh3343,2,새책방      ,37.48114052,126.9303107,https://twitter.com/comiczone1,무료
509,509,3208,코믹토토,314,양천구,양천구 은행정로 58,02-2693-2444,http://www.comictoto.com,1,헌책방      ,37.5247571,126.8592816,,무료
510,510,2694,콕콕콕,316,구로구,구로구 고척로8 2층,0507-1369-3328,https://blog.naver.com/cokcokcok_book-doll,2,새책방      ,37.49559571,126.8407958,https://www.instagram.com/cokcokcok_book.doll,무료
511,511,3161,쿨디가,321,서초구, 효령로55길 22 그린빌오피스텔 401호,0507-1388-0456,,2,새책방      ,37.48579963,127.0146937,https://www.instagram.com/kuldigainseoul/,무료
512,512,2695,클래식책방,303,성동구,성동구 금호산길 30-1,,,2,새책방      ,37.55092707,127.0194383,https://www.instagram.com/mydear_bookcase/,무료
513,513,3221,키다리영어샵,310,노원구,노원구 노해로75길 14-26 효림빌딩 6층,0507-1413-0515,,2,새책방      ,37.65458166,127.0588877,,무료
514,514,2826,토리헌책방,316,구로구,구로구 구로중앙로18길 54,02-6405-0043,,1,헌책방      ,37.49583691,126.8921371,,무료
515,515,2981,톨쉽북스토어,319,동작구,노량진로6길 21 지하1층,070-4438-2006,https://blog.naver.com/tallship_bookstore,2,새책방      ,37.51211489,126.9359156,https://www.instagram.com/tallship_bookstore,무료
516,516,2827,통문관,300,종로구,종로구 인사동길 55-1,02-734-4092,http://www.tongmunkwan.co.kr,1,헌책방      ,37.5749008,126.9836674,,무료
517,517,3001,트립북앤스페이스,303,성동구,왕십리로 92 4층,,https://blog.naver.com/tlibbooknspace,2,새책방      ,37.5457235,127.0449825,https://www.instagram.com/tlibbooknspace,무료
518,518,2697,파움스서울,300,종로구,종로구 필운대로 15-10 4층,0507-1350-9125,,2,새책방      ,37.57786658,126.9691049,https://www.instagram.com/paumsseoul/,무료
519,519,2698,페이퍼 뮤즈,302,용산구,용산구 대사관로5길 25,02-6406-6818,http://papermuse.kr,2,새책방      ,37.53531597,127.0002909,https://www.instagram.com/papermuse.kr,무료
520,520,3162,페잇퍼,312,서대문구,연희로 15안길 32-7,02-4619-9086,http://www.paperr.kr,2,새책방      ,37.57022401,126.9304299,https://www.instagram.com/paperr.bookshop,무료
521,521,2828,평화서림,301,중구,중구 청계천로 274 다8호,02-2274-3450,,1,헌책방      ,37.56942586,127.0080476,,무료
522,522,2699,포스트 포에틱스,302,용산구,용산구 이태원로54길 19,02-322-7023,https://postpoetics.kr,2,새책방      ,37.53610921,127.0001638,https://www.instagram.com/postpoetics,무료
523,523,2700,푸른문고,319,동작구,동작구 상도로 56,02-823-4583,,2,새책방      ,37.49960365,126.926517,,무료
524,524,2701,풀무질,300,종로구,종로구 성균관로 19 지하 1층,02-745-8891,https://poolmoojil.com,2,새책방      ,37.58439234,126.9973311,https://www.instagram.com/poolmoojil,무료
525,525,2702,프라임 서점,320,관악구,관악구 신림로 90,02-878-1138,https://book.primeedunet.com,2,새책방      ,37.47093617,126.9393627,,무료
526,526,2703,프루스트의 서재,303,성동구,성동구 무수막길 56,,https://smartstore.naver.com/proustbook,2,새책방      ,37.55125279,127.0219378,https://www.instagram.com/library_of_proust,무료
527,527,2901,프린터스,324,강동구,양재대로 103길67,,,2,새책방      ,37.53373281,127.1341903,https://www.instagram.com/printersprintingclub,무료
528,528,2705,피스북스,300,종로구,종로구 옥인3길 5-1,02-722-2016,https://blog.naver.com/peacebooks,2,새책방      ,37.58068012,126.9664952,https://www.instagram.com/peace_books ,무료
529,529,2706,핏어팻(PIT A PAT),300,종로구,종로구 혜화로3길5 아남아파트 상가 301동 108호,070-8820-6195,,2,새책방      ,37.58596461,127.0002305,https://www.instagram.com/pitapat_coffee_,무료
530,530,3163,하우스북스,323,송파구,송파구 백제고분로 9길 5,02-6000-6675,https://blog.naver.com/hows_seoul,2,새책방      ,37.50938231,127.0796563,https://www.instagram.com/hows_seoul/,무료
531,531,3023,학림문고,315,강서구,허준로 139,02-2668-2944,,2,새책방      ,37.56521522448027,126.85566705807918,,무료
532,532,2709,학문서점,306,중랑구,중랑구 용마산로 345,02-496-6646,,2,새책방      ,37.58275311,127.0932724,,무료
533,533,2710,학연서점,318,영등포구,영등포구 국제금융로6길33,02-785-6623,,2,새책방      ,37.52079083,126.926912,,무료
534,534,2711,학창문고,321,서초구,서초구 서초대로26길 3,02-583-8189,,2,새책방      ,37.48766848,126.9945392,,무료
535,535,2713,한국서적,311,은평구,은평구 은평로9길 6 진보빌딩,02-387-4252,https://blog.naver.com/mamgobook,2,새책방      ,37.60074563,126.9214446,https://www.instagram.com/k_book.store/,무료
536,536,2714,한권의 서점,300,종로구,종로구 자하문로9길 24,0504-0904-2021,http://of-onebook.com,2,새책방      ,37.57956477,126.9697914,https://www.instagram.com/of.onebook,무료
537,537,2715,한글서점문구,304,광진구,광진구 뚝섬로 480,02-462-2978,,2,새책방      ,37.53642449,127.0635473,,무료
538,538,2716,한글파크서점,300,종로구,종로구 자하문로 300,02-561-9544,http://www.hangeulpark.com,2,새책방      ,37.59950888,126.9598713,https://www.instagram.com/hangeulparkbooks/,무료
539,539,2717,한길서적,319,동작구,동작구 사당로 226 지하1층,02-588-2274,,2,새책방      ,37.48355381,126.9727846,,무료
540,540,2384,한길서적 숭실대점,319,동작구,동작구 상도로 347 지하1층,02-821-2274,,2,새책방      ,37.49752877,126.9529285,,무료
541,541,2718,한길서점,322,강남구,강남구 삼성로 237,02-3453-1626 ,,2,새책방      ,37.49835167,127.0608601,,무료
542,542,2982,한나책방,312,서대문구,연희로11나길 7-5 2층 201호,070-4123-7778,,2,새책방      ,37.56738638,126.9282638,https://www.instagram.com/hannasbookshop,무료
543,543,2719,한림사,321,서초구,서초구 청두곶길 42,0507-1371-3407,http://www.bookmarc.co.kr,2,새책방      ,37.48035459,126.9854763,https://www.instagram.com/hanlimsa_book/,무료
544,544,2720,한미문화사,300,종로구,종로구 필운대로1길 21 1층,02-548-8084,http://blog.kbmyshop.com/%ED%95%9C%EB%AF%B8%EB%AC%B8%ED%99%94%EC%82%AC,2,새책방      ,37.57766172,126.9681794,https://www.instagram.com/anyitaeg/,무료
545,545,2721,한미서적,323,송파구,송파구 문정동 156번지 가든파이브라이프 영관 4층,02-2157-6051,,2,새책방      ,37.47761484,127.1249618,,무료
546,546,2722,한보책문구(한보문고),324,강동구,강동구 천호대로 1194,02-473-8162,,2,새책방      ,37.53430463,127.1440138,,무료
547,547,2724,한솔문고,305,동대문구,동대문구 한천로 221 지하1층,02-2241-7978,https://booksketch.co.kr,2,새책방      ,37.58065234,127.0681078,,무료
548,548,2723,한솔문고,316,구로구,구로구 고척로 202,02-2611-0455,,2,새책방      ,37.50485847,126.8557205,,무료
549,549,2725,한우리문고,305,동대문구,동대문구 이문로 98 지하1층,02-967-0162,http://blog.naver.com/hanwoori0162,2,새책방      ,37.59552679,127.0598725,,무료
550,550,2726,한티서점,322,강남구,강남구 도곡로 415 지하1층,02-563-7821,,2,새책방      ,37.49754299,127.0559831,,무료
551,551,2727,한평책빵,311,은평구,은평구 통일로 684 서울혁신파크 25동 101호,,https://blog.naver.com/hanpyeong01,2,새책방      ,37.60940705,126.9349539,https://www.instagram.com/book1kr/,무료
552,552,2830,함양서림,301,중구,중구 청계천로 246 다118호,02-2272-5267,,1,헌책방      ,37.56936838,127.0047211,,무료
553,553,2728,햇빛문고 목동본점,314,양천구,양천구 목동서로 355,02-2655-2444,https://www.sunnybook.co.kr/,2,새책방      ,37.51720397,126.8643447,,무료
554,554,2729,햇빛문고 푸른마을점,314,양천구,양천구 신정로11길 50-2,02-2688-3588,http://www.sunnybook.co.kr,2,새책방      ,37.51150106,126.8384155,,무료
555,555,2730,햇살속으로,307,성북구,성북구 정릉로 346,02-512-5272,,2,새책방      ,37.60152451,127.0213921,https://www.instagram.com/sunshinebook_seoul,무료
556,556,2731,행복한글간,315,강서구,강서구 공항대로41길 51 지하1층,02-3661-6055,,2,새책방      ,37.56023598,126.8457763,https://www.instagram.com/happygulgan,무료
557,557,2831,행운서점,307,성북구,성북구 종암로22길 31,02-2232-3521,http://hwbook.com,1,헌책방      ,37.60019783,127.0357826,,무료
558,558,2732,향기나무,318,영등포구,영등포구 신풍로 25가길 14,,https://japabook.modoo.at/,2,새책방      ,37.50096448,126.9184872,https://www.instagram.com/juniper_art_studio,무료
559,559,2733,헬로인디북스,313,마포구,마포구 동교로46길 33, ,https://blog.naver.com/indiebooks,2,새책방      ,37.56229058,126.9265898,https://www.instagram.com/helloindiebooks,무료
560,560,2734,현대문고,311,은평구,은평구 은평로3길 15,02-355-8500,,2,새책방      ,37.60037506,126.9149504,,무료
561,561,2544,현대서적,322,강남구,강남구 압구정로 201,02-542-3894,,2,새책방      ,37.53153417,127.0292731,,무료
562,562,2735,현대서점,310,노원구,노원구 한글비석로 231 지하1층,02-951-3943 ,,2,새책방      ,37.64821677,127.0763172,,무료
563,563,2736,현대서점문구,324,강동구,강동구 상암로 11 선사현대단지상가 121호,02-481-4242,,2,새책방      ,37.55344749,127.12566,,무료
564,564,2737,현대책서점,324,강동구,강동구 동남로81길 70 ,02-428-0489,,2,새책방      ,37.55934126,127.153137,,무료
565,565,2738,형제서점,316,구로구,구로구 디지털로31길 120 지하1층,02-864-0241,,2,새책방      ,37.48847002,126.890773,,무료
566,566,2739,형제책서점,314,양천구,양천구 신정로14길 1,02-2065-9790,,2,새책방      ,37.50899029,126.8448385,,무료
567,567,2740,형제할인책문고,318,영등포구,영등포구 당산로 95 현대아파트 지하 1층,02-2678-7054,https://brotherbook.modoo.at,2,새책방      ,37.52402305,126.894863,,무료
568,568,2742,호박이넝쿨책,307,성북구,성북구 정릉로26가길 30,0507-1425-1719,https://cafe.naver.com/hobakbook,2,새책방      ,37.60283495,127.0113436,https://www.instagram.com/pumpkin_vege_book,무료
569,569,2743,호수책장,315,강서구,강서구 강서로45길 132-14,,https://m.smartstore.naver.com/hosubookshelves,2,새책방      ,37.55067233,126.8315808,https://www.instagram.com/hosubookshelves,무료
570,570,2744,홀로서기,324,강동구,강동구 동남로75길 13-25 지하1층,0507-1334-6922,,2,새책방      ,37.55306826,127.1554729,,무료
571,571,3024,홈통,317,금천구,금천구 시흥대로73길 11 무지개상가 309호,0507-1380-3253,,2,새책방      ,37.45661694,126.8983015,https://www.instagram.com/hometong_20m,무료
572,572,3031,홍익도서,313,마포구,동교로 148-8,02-334-4436,http://www.designbook.co.kr,2,새책방      ,37.55501846,126.9186288,https://www.instagram.com/designbook_hongik,무료
573,573,2745,홍익문고,312,서대문구,서대문구 연세로 2,02-392-2020,http://cafe.naver.com/hongikbook,2,새책방      ,37.55578538,126.9370438,https://www.instagram.com/hongikmungo,무료
574,574,2746,홍제문고,312,서대문구,서대문구 통일로39가길 30 지하1층,02-3217-5552,https://blog.naver.com/js3217555,2,새책방      ,37.58896925,126.9442924,,무료
575,575,2747,화랑문고,310,노원구,노원구 공릉로 34길 62,02-973-8580,,2,새책방      ,37.62336595,127.0821211,,무료
576,576,2748,환일서점,313,마포구,마포구 환일길 48,02-313-3156,,2,새책방      ,37.55409127,126.9608924,,무료
577,577,2833,황룡서점,322,강남구,강남구 일원로3길 56,02-2226-9414,,2,새책방      ,37.49249727,127.0844664,,무료
578,578,2749,황룡서점,323,송파구,송파구 마천로 271,02-400-4501,,2,새책방      ,37.49780507,127.1471085,,무료
579,579,2834,흙서점,320,관악구,관악구 남부순환로 1916,02-884-8454,,1,헌책방      ,37.47735921,126.9620682,,무료
580,580,2750,흥인서점,315,강서구,강서구 화곡로24길 40,02-2696-2320,,2,새책방      ,37.53918298,126.8388808,,무료
581,581,2751,희망문고,307,성북구,성북구 성북로2길 27 삼선교 맥도날드 뒷문,02-744-9534,,2,새책방      ,37.58956421,127.0071805,,무료
