,Unnamed: 0,category_id,name,district,address,latitude,longitude,work_time,price,phone_number,image_url,page_url,description
0,0,,1984,마포구,마포구 동교로 194 혜원빌딩,37.55738472,126.9228861,,무료,02-325-1984,https://bookshopmap.s3.ap-northeast-2.amazonaws.com/venue/1984-cover.JPG,https://www.instagram.com/1984store,새책방      
1,1,,21세기문고,강남구,강남구 남부순환로359길 31,37.48683261,127.0355653,,무료,02-3463-1880  ,,,새책방      
2,2,,C&S서점,강남구,강남구 남부순환로 2806 군인공제회관 지하1층,37.48910918,127.0529141,,무료,02-2190-2178,https://search.pstatic.net/common/?autoRotate=true&quality=100&type=f640_380&src=https%3A%2F%2Fldb-phinf.pstatic.net%2F20150901_60%2F1441048528793tMKht_JPEG%2FSUBMIT_1285757803699_13514755.jpg,,새책방      
3,3,,Foreign book store,용산구,용산구 녹사평대로 208,37.53624637,126.9872269,,무료,02-793-8249,https://mblogthumb-phinf.pstatic.net/MjAyMzAxMDVfMjkx/MDAxNjcyOTI5ODg5NzA3.DjqdqEW2ahbKinzokoVFBynwXno4sLd2U5HLxl_gHt0g.nf9Glw6EBNPQjtChjm4IXPmqirdurq1P_ytteQEegf4g.JPEG.smith0715/IMG_1761.jpg?type=w800,https://www.instagram.com/itaewon_foreign_bookstore,헌책방      
4,4,,PRNT,동작구,동작구 만양로1길 1 1층,37.50573295,126.9467369,,무료,070-4177-0021,,https://prntseoul.com,새책방      
5,5,,SK문고,강북구,강북구 솔샘로 215 2층,37.6202008,127.0166087,,무료,02-945-1959,https://search.pstatic.net/common/?autoRotate=true&quality=100&type=f640_380&src=https%3A%2F%2Fldb-phinf.pstatic.net%2F20210609_56%2F1623224035353AwCBA_JPEG%2FrQLT8HF4njCqa8fuNmRatFKo.jpg,,새책방      
6,6,,YES24 중고매장(목동점),양천구,양천구 오목로 325 지하 1층,37.52510741,126.873627,,무료,1566-4295,https://image.yes24.com/sysimage/store/photo/mokdong/PhotoTop01.jpg,,헌책방      
7,7,,YES24(강서NC점),강서구,"강서구 강서로56길 17 NC백화점 강서점 8, 9층",37.55993353,126.8404988,,무료,,https://image.yes24.com/momo/TopCate3696/MidCate005/369545875(1).jpg,,새책방      
8,8,,가가77페이지,마포구,마포구 망원로 74-1 지하1층,37.55726128,126.9051793,,무료,,"https://image.bookshopmap.com/600,fit,q60/venue/image02.png?ver=1664692007",http://77page.com,새책방      
9,9,,가람프라자,금천구,금천구 시흥대로41길 95,37.45066173,126.9000346,,무료,02-891-7474,https://search.pstatic.net/common/?autoRotate=true&quality=100&type=f640_380&src=https%3A%2F%2Fldb-phinf.pstatic.net%2F20210705_54%2F1625471882963zJabY_JPEG%2F_zUR3rqsMM9tgCbF2E_8tx7g.jpg,,새책방      
10,10,,감성인간서점,성북구,성북구 돌곶이로 41가길 14-10,37.61868437,127.0446506,,무료,,https://bookshopmap.s3.ap-northeast-2.amazonaws.com/venue/KakaoTalk_20220329_145818000_a9e8d841-2.jpeg?ver=1649729481,https://blog.naver.com/dnfladydgk,새책방      
11,11,,갑을문고,성북구,성북구 화랑로11길 26,37.60330001,127.0421083,,무료,0507-1320-0002,https://search.pstatic.net/common/?autoRotate=true&quality=100&type=f640_380&src=https%3A%2F%2Fldb-phinf.pstatic.net%2F20201016_26%2F1602831320938QrY5j_JPEG%2FNl43EW7hWv-OATbGdg-rDiDM.jpeg.jpg,https://www.instagram.com/gapeul_bookstore,새책방      
12,12,,강동헌책방,강동구,강동구 구천면로 257,37.54327293,127.1316483,,무료,02-471-0272,https://mblogthumb-phinf.pstatic.net/MjAyMTA4MTBfMTI2/MDAxNjI4NTY4NDEzOTc5.7MEAeBcZrNmYik5Zh5CwuZIIrzaTp0UcTkKgKGyLKXkg.yEcwLa2jenbD99Xf-_CVZvCWpHEZo1XeCL-NiO1UUOMg.JPEG.moojum419/20210810%EF%BC%BF122041.jpg?type=w800,,헌책방      
13,13,,강서책서점,양천구,양천구 목동중앙남로 28,37.53647642,126.8673893,,무료,02-651-1085,https://mblogthumb-phinf.pstatic.net/MjAyMjA3MDJfMjY5/MDAxNjU2Njk4NTczMTkz.7DeXXikM4qGKNj7CiEx5Mu1wc1LBtvwdZtt34xF-2uEg.U-C6CjvcNz-fQ94SnQk9g5Z6iBau78GSFk87AKJQ3Z4g.JPEG.golfer36/20220701%EF%BC%BF170557.jpg?type=w800,,새책방      
14,14,,개똥이네(가양점),강서구,강서구 양천로 431 지하 1층,37.56426405,126.8499602,,무료,02-2658-2982 ,https://modo-phinf.pstatic.net/20180524_48/1527146423518Mkiij_JPEG/mosaooU2vk.jpeg?type=f320_320,,헌책방      
15,15,,개똥이네(노원점),노원구,노원구 동일로217가길 17 2층,37.6533222,127.0593697,,무료,02-951-2989,https://modo-phinf.pstatic.net/20180626_112/1530022524766a9Rsh_JPEG/mosagZPabB.jpeg?type=f320_320,,헌책방      
16,16,,개똥이네(영등포점),영등포구,영등포구 여의대방로62길 2 5층,37.51381602,126.9266765,,무료,02-822-2989,https://mblogthumb-phinf.pstatic.net/MjAxOTAyMjBfNDIg/MDAxNTUwNjM2ODI1ODMz.dALpGijeu5Xds8rS2dVJuK7WLs8kLWief6UdEcEVxUcg.rddIdFb_PEXV7xYTbbmBLrYYoxw1_oI8EF2QTEaQvv4g.JPEG.ranran115200/SE-085c1587-1cd4-46f7-83c1-2ee416c09702.jpg?type=w800,,헌책방      
17,17,,개똥이네(잠실점),송파구,송파구 올림픽로35길 93 지하1층 상가 118호,37.51773252,127.1044332,,무료,02-445-2989,https://mblogthumb-phinf.pstatic.net/MjAyMjA1MzFfMjQy/MDAxNjUzOTc5NzcyNzY4.ZxkCwmeP01ZK8jDn6Vylfkg_QrUht0Qo5Lwp1OlkH7Ig.783_kvzGGscrGqcpKJOvvgFUrelyuvBf6JZq1Ms0pA8g.JPEG.a125115/%EA%B0%9C%EB%98%A5%EC%9D%B4%EB%84%A4%EC%9E%A0%EC%8B%A4%EC%A0%90%EB%A7%A4%EC%9E%A51.jpg?type=w800,,헌책방      
18,18,,개롱서적,송파구,송파구 오금로 414 명문빌딩 지하1층,37.49720786,127.1359163,,무료,02-403-1603,https://mblogthumb-phinf.pstatic.net/MjAxNjExMTlfODEg/MDAxNDc5NDg0NDY4NjI2.OidRmh2v8LjJ8cvn-NGGebgbagNCDN8Ohw4oXk1hU14g.gC4bsLViNqGn00CEi7HDCq7JmXnyGvcBwk7GTE80m0sg.JPEG.qufrjfek10/SAM_4999.JPG?type=w800,,새책방      
19,19,,거목서점,서초구,서초구 신반포로 213 지하 9호,37.50727104,127.0072709,,무료,02-3476-1585,,,새책방      
20,20,,거북서점,노원구,노원구 상계로 115,37.6576976,127.0674937,,무료,,https://www.seoulbookbogo.kr/front/img/2spic09_3.jpg,,헌책방      
21,21,,건영문고,노원구,노원구 섬밭로 258 지하 1층,37.63910978,127.0649151,,무료,02-949-2148,,,새책방      
22,22,,경일서점,성동구,성동구 성수일로 33 지하1층,37.54364277,127.0491876,,무료,02-497-5670,https://search.pstatic.net/common/?autoRotate=true&quality=100&type=f640_380&src=https%3A%2F%2Fldb-phinf.pstatic.net%2F20181005_226%2F1538721309504bXVPi_JPEG%2FOSPj9cBu-SGeXvnK8YyNsux5.jpg,,새책방      
23,23,,경희문고,동대문구,동대문구 회기로 113,37.59164957,127.0493102,,무료,02-957-7799,,https://www.instagram.com/khbook_seoul,새책방      
24,24,,계성문고,성북구,성북구 길음로 33 2층 22호,37.60504925,127.0220094,,무료,02-943-5398,https://img.etoday.co.kr/pto_db/2020/08/20200828130926_1503503_1199_799.jpg,https://www.facebook.com/Gyeseongbooks,새책방      
25,25,,고래서점,용산구,용산구 한강대로 307,37.54572765,126.9715375,,무료,02-717-8346,https://search.pstatic.net/common/?autoRotate=true&quality=100&type=f640_380&src=https%3A%2F%2Fldb-phinf.pstatic.net%2F20190519_87%2F1558271704352KQHvB_JPEG%2FIWWpSUesmB4n7z5SPUawaj4d.jpg,http://www.bookgore.com/,새책방      
26,26,,고려서점,강서구,강서구 강서로47길 26 지하1층,37.552876,126.8347796,,무료,02-2663-3181,,,새책방      
27,27,,고시책사랑,관악구,관악구 호암로26길 27,37.4706007,126.9352363,,무료,02-871-5550,https://search.pstatic.net/common/?autoRotate=true&quality=100&type=f640_380&src=https%3A%2F%2Fldb-phinf.pstatic.net%2F20150901_179%2F1441055340188s37bS_JPEG%2FSUBMIT_1401879527622_11850756.jpg,,헌책방      
28,28,,고요서사,용산구,용산구 신흥로15길 18-4,37.54437666,126.9858576,,무료,0507-1410-4226,"https://image.bookshopmap.com/600,fit,q60/venue/goyo_bookshop1.jpg",http://blog.naver.com/goyo_bookshop,새책방      
29,29,,곰서점,동작구,동작구 양녕로 186 지하1층,37.49791392,126.9435904,,무료,02-821-5672,https://mblogthumb-phinf.pstatic.net/20160729_178/jung1w_1469752286917R2sNc_JPEG/attachImage_4115552710.jpeg?type=w800,,새책방      
30,30,,공간과몰입,종로구,종로구 낙산길 19,37.58054788,127.0055969,,무료,,https://bookshopmap.s3.ap-northeast-2.amazonaws.com/venue/F1201440-53FF-4619-89AE-F511BCAD8D23_2994fe17.jpeg?ver=1643524930,https://blog.naver.com/gggmolip,새책방      
31,31,,공상온도,마포구,마포구 동교로 23길40 지하1층,37.55765748,126.9198091,,무료,0507-1404-0247,https://static.comeup.asia/ajaxs/05a5cf06982ba7892ed2a6d38fe832d6/%EA%B3%B5%EC%83%81%EC%98%A8%EB%8F%84%205.jpg,http://www.gongsangondo.com,새책방      
32,32,,공손서점,강동구,강동구 동남로75길 19 지하 1층,37.55413021,127.1551777,,무료,02-427-3888,,,새책방      
33,33,,공손서점,광진구,광진구 아차산로70길 17-17,37.54169929,127.1025258,,무료,02-444-1570,,,새책방      
34,34,,공신서점,양천구,양천구 신정로13길 22,37.51142543,126.8431316,,무료,02-2699-4002,,,새책방      
35,35,,공씨책방(성수점),성동구,성동구 광나루로 130 106호-라,37.55097877,127.0447207,,무료,,"https://image.bookshopmap.com/600,fit,q60/venue/%E1%84%80%E1%85%A9%E1%86%BC%E1%84%8A%E1%85%B5%E1%84%8E%E1%85%A2%E1%86%A8%E1%84%87%E1%85%A1%E1%86%BC-%E1%84%89%E1%85%A5%E1%86%BC%E1%84%83%E1%85%A9%E1%86%BC%E1%84%80%E1%85%AE.jpeg",,헌책방      
36,36,,공씨책방(신촌점),서대문구,서대문구 신촌로 55-2,37.5568761,126.932749,,무료,02-336-3058,https://bookshopmap.s3.ap-northeast-2.amazonaws.com/venue/%E1%84%80%E1%85%A9%E1%86%BC%E1%84%8A%E1%85%B5%E1%84%8E%E1%85%A2%E1%86%A8%E1%84%87%E1%85%A1%E1%86%BC-%E1%84%89%E1%85%B5%E1%86%AB%E1%84%8E%E1%85%A9%E1%86%AB%E1%84%8C%E1%85%A5%E1%86%B7-%E1%84%8B%E1%85%A1%E1%87%81.jpg,,헌책방      
37,37,,공일서점,노원구,노원구 공릉로 101 경동상가,37.61930144,127.0778417,,무료,02-972-6407,https://storage.googleapis.com/real-seoul-image/place/da1c519b-85db-4ed9-8ee1-508063e610f3.png,,새책방      
38,38,,공작문고,마포구,마포구 성산로 128 마포중앙도서관 지하 1층,37.56379544,126.9082019,,무료,,,https://www.instagram.com/gongjakbooks,새책방      
39,39,,과학책방 갈다,종로구,종로구 삼청로10길 18,37.58763566,126.9820384,,무료,0507-1314-1018,https://storage.googleapis.com/cr-resource/image/27cf9b9af0f70922d4875dd55b58aa80/galdar/1920/c7efdd869082a4cadc72b06ac3b887fe.jpg,http://galdar.kr,새책방      
40,40,,관객의취향,관악구,관악구 관악로 204 3층 301호,37.48296173,126.9542948,,무료,070-8818-2046 ,https://image.yes24.com/images/chyes24/froala/0/51470/73150.jpg,http://smartstore.naver.com/yourtastebook,새책방      
41,41,,광명문고,은평구,은평구 수색로 268 지하 1층,37.5829395,126.8947019,,무료,02-303-0524,https://dnvefa72aowie.cloudfront.net/origin/smb/202005/5697bd6889e3719f5997a818146bf886ef59fc36d9af24071f56013ca77c464d.webp?q=95&s=1440x1440&t=inside,https://blog.naver.com/herryqrio ,새책방      
42,42,,광진서적,광진구,광진구 광나루로36길 76,37.5416637,127.0854335,,무료,02-455-2999,https://mblogthumb-phinf.pstatic.net/MjAxOTEwMjVfMTIy/MDAxNTcyMDEyMzE2NTMw.0vqDV69mYS0S1iiXuaaec1UkrZUe9wbs-I_x6WZBp6Ig.wCr1qD6sJCfRjqCD8tYMFNARlkVOmby8W86gJFqE73gg.JPEG.ydss0561/SE-5043227b-06c0-4b16-939a-1f40427d5e36.jpg?type=w800,,새책방      
43,43,,광평서점,강남구,강남구 광평로 63,37.48286093,127.0796263,,무료,02-445-6842,,,새책방      
44,44,,교보문고(가든파이브 바로드림센터),송파구,"송파구 충민로 66, 가든파이브 라이프 리빙관 현대시티몰 4층",37.47761484,127.1249618,,무료,1544-1900,https://mblogthumb-phinf.pstatic.net/MjAyMDA2MjFfMjc5/MDAxNTkyNzI5ODg4MDA3.xCSCYlX52OGjsirjeHI4dk2kSbF6KAbqSgkpVbbhSzsg.x9wUyRL3cvC3sqZdn5y6DsVfJQwZUM2vZ0XwPfJB-twg.JPEG.hyehwa0056/1592729888719.jpg?type=w800,,새책방      
45,45,,교보문고(강남점),서초구,"서초구 강남대로 465, 교보타워 지하 1~지하 2층",37.50375605,127.0241095,,무료,1544-1900,https://mblogthumb-phinf.pstatic.net/MjAxNzAzMjhfMzQg/MDAxNDkwNjg5ODAzMDQx.i2u2AFSdAXlJDb4OauWnLesm2zqHCw1z_s9JQVhPAMEg.fa6RITZidyVuV5mOczC5kGVNDiaQcUYkYGDnVRbJp8Yg.JPEG.digitalhippy/image_9481413161490689780258.jpg?type=w800,https://www.kyobobook.co.kr/store/?storeCode=015,새책방      
46,46,,교보문고(건대 바로드림센터),광진구,능동로 92 롯데백화점 스타시티점 지하1층,37.53899977,127.0712144,,무료,1544-1900,https://mblogthumb-phinf.pstatic.net/MjAyMjAxMDRfMjU2/MDAxNjQxMzA0ODEzODYw.PbRqIDmUQujeSyOx8fiNIbCUQFnCDFOz1l7KzV_3o60g.XATHLx-OPWYwIzUHWZdGTAFVeWjtxQYNviN6SdDVgakg.JPEG.digitalhippy/SE-a17ca7b4-561e-474b-b28c-9f4960940856.jpg?type=w800,,새책방      
47,47,,교보문고(광화문점),종로구,"종로구 종로 1, 교보생명빌딩 지하 1층",37.57095784,126.9779288,,무료,1544-1900,https://contents.kyobobook.co.kr/etc/ec/store/582be99d99744cbba145b19b2b153fae.png,,새책방      
48,48,,교보문고(동대문 바로드림센터),중구,"중구 장충단로13길 20, 현대시티아울렛 지하 1층",37.56873455,127.0076665,,무료,1544-1900,,,새책방      
49,49,,교보문고(디큐브시티 바로드림센터),구로구,"구로구 경인로 662, 현대백화점 지하 1층",37.50812307,126.888213,,무료,1544-1900,https://mblogthumb-phinf.pstatic.net/MjAyMDA2MTJfNzYg/MDAxNTkxOTU5Mjg1ODA1.0zzXqz6VOF42ibWhpmwX8umD0idYQVU4zisxJCIR6EEg.RzW3_14Ljj6GybkURnj3xJb-L5j9l5Xy_m17k6S37K8g.JPEG.digitalhippy/SE-0ee93bff-9931-420a-8959-9578503b5cb0.jpg?type=w800,,새책방      
50,50,,교보문고(목동점),양천구,"양천구 목동서로 159-1, CBS 지하 1층",37.52823182,126.8749907,,무료,1544-1900,,,새책방      
51,51,,교보문고(수유 바로드림센터),강북구,"강북구 도봉로 348, 교보생명빌딩 지하 1층",37.6383189,127.0265481,,무료,1544-1900,https://mblogthumb-phinf.pstatic.net/MjAyMTExMDdfNjIg/MDAxNjM2Mjg2NTA1NTQx.rbcr5mLI45JasxUG8A--d3UJSb6Ieg6Zyk9rA7u_iR8g.UxQW-OicuA3Q7grUtmeeAD8TjxMy1gnNTSxThoHIVWkg.JPEG.digitalhippy/SE-01dac053-eda7-40c1-82d5-2cd614511953.jpg?type=w800,,새책방      
52,52,,교보문고(신논현역스토어),강남구,강남구 봉은사로 102 지하 1층,37.50463416,127.0250313,,무료,1544-1900,,,새책방      
53,53,,교보문고(영등포점),영등포구,"영등포구 영중로 15, 타임스퀘어 멀티플렉스 2층",37.51723326,126.903716,,무료,1544-1900,,,새책방      
54,54,,교보문고(은평 바로드림센터),은평구,"은평구 통일로 1050, 롯데몰 3층",37.63753667,126.9179003,,무료,1544-1900,https://newsmanager2.etomato.com/userfiles/image/16%EA%B8%B0%20%EA%B6%8C%EC%9D%B5%EB%8F%84/%EC%9D%80%ED%8F%89%20%EB%B0%94%EB%A1%9C%EB%93%9C%EB%A6%BC%EC%84%BC%ED%84%B0%202.jpg,,새책방      
55,55,,교보문고(잠실점),송파구,"송파구 올림픽로 269, 롯데캐슬골드 지하 1층",37.51442735,127.1006114,,무료,1544-1900,https://mblogthumb-phinf.pstatic.net/MjAyMjA2MjBfMTQg/MDAxNjU1NzA3NjcxODY0.pWskdNqJ9z0Z8cbnNQ9UdiyJLFBa2ZZw0pfVHaV3kTcg.cvguVldHXJ9QbEuNPmAMkxQSM6Py1P9dgbvFXTfv_AMg.JPEG.je505050/KakaoTalk_20220620_153855776.jpg?type=w800,,새책방      
56,56,,교보문고(천호점),강동구,"강동구 올림픽로 664, 대우한강베네시티 지하 1층",37.54055538,127.1249758,,무료,1544-1900,https://mblogthumb-phinf.pstatic.net/MjAxOTA1MTRfMjE2/MDAxNTU3ODMyMTcxOTU4.PcEmqHNVc02WC9Tu91zJS1pTX0PpxxXM57GgtkYNuZMg.hoBAXaZCZlLC5wfWgtT1ckB7MtZ4jx_L3pV1PLIpFJgg.JPEG.kiki5730/20190514_194815.jpg?type=w800,,새책방      
57,57,,교보문고(청량리 바로드림센터),동대문구,"동대문구 왕산로 214, 롯데백화점 청량리점 지하 1층",37.58419614,127.0511471,,무료,1544-1900,https://mblogthumb-phinf.pstatic.net/MjAxODEwMzBfMjk4/MDAxNTQwODk2NjU5ODIx.s4IE-Vxzww_uQBMlMTbEI3naEPGlaCgwKcL-uEyP0pYg.Rs4BJPKYu5CKKDqjecum-tv8maXQq0voi1r_UMIO_tgg.JPEG.digitalhippy/image_4459988661540896610209.jpg?type=w800,,새책방      
58,58,,교보문고(합정점),마포구,"마포구 월드컵로3길 14 딜라이트스퀘어 2차(지하 1층), 1차(지하 2층)",37.55100797,126.911649,,무료,1544-1900,https://mblogthumb-phinf.pstatic.net/MjAxNzA0MjZfNTIg/MDAxNDkzMTg2NDkyODI2.0IskcbmIMq_5O9z2c0uIyHp4WiAjLYm7I-8p10Hc4M0g.s-veMTYUQJHjQIHELDxGF1fe5cNM0nXUqsF7cImY9Y4g.JPEG.sits0/%ED%95%A9%EC%A0%95%EB%8F%99_%EA%B5%90%EB%B3%B4%EB%AC%B8%EA%B3%A0_04.jpg?type=w800,,새책방      
59,59,,교보서적,강서구,강서구 양천로 87 대일빌딩 지하1층,37.57360861,126.8136505,,무료,02-2664-6148 ,,,새책방      
60,60,,구일서점,구로구,구로구 구일로4길 66,37.49368169,126.8763089,,무료,02-853-0191,,,새책방      
61,61,,그날이오면 ,관악구,관악구 신림로 14길 26,37.47189358,126.9383179,,무료,02-885-8290,https://img1.daumcdn.net/thumb/R1280x0/?fname=http://t1.daumcdn.net/brunch/service/user/aKW0/image/ocn-4b3DTDGRM7twPsJbLd_PuFM.jpg,http://www.gnal.co.kr,새책방      
62,62,,그래서,중구,중구 동호로37길 20 A동 2층 132호,37.56872417,127.0008056,,무료,02-2268-3305,https://bookshopmap.s3.ap-northeast-2.amazonaws.com/venue/glaeso_book.jpg,http://glaeso.shop.blogpay.co.kr,새책방      
63,63,,그래픽,용산구,용산구 회나무로39길 33,37.54093281,126.9935916,,무료,070-4070-0204,https://cdn.designhouse.co.kr/cms/img/2022/03/M.1648432731.3516.2.jpg,https://www.instagram.com/graphic.fan,새책방      
64,64,,그래픽,용산구,용산구 회나무로39길 33,37.54093281,126.9935916,,무료,070-4070-0204,https://cdn.designhouse.co.kr/cms/img/2022/03/M.1648432731.3516.2.jpg,https://www.instagram.com/graphic.fan/,새책방      
65,65,,그랜드문고,노원구,노원구 한글비석로 253 지하1층,37.6504237,127.0763481,,무료,02-938-1065,https://search.pstatic.net/common/?autoRotate=true&quality=100&type=f640_380&src=https%3A%2F%2Fldb-phinf.pstatic.net%2F20160320_56%2F1458480751398JXoBA_JPEG%2F176270626251257_0.jpeg,https://smartstore.naver.com/grandbooks,새책방      
66,66,,그린북스,중랑구,중랑구 봉화산로 94 2층,37.60208775,127.0849258,,무료,02-433-6728,,,헌책방      
67,67,,그림책방 곰곰,마포구,마포구 연남로 61-1,37.56462283,126.9198304,,무료,02-335-2041,https://bookshopmap.s3.ap-northeast-2.amazonaws.com/venue/gomgom-c.jpg,https://smartstore.naver.com/gomgombookstore,새책방      
68,68,,글방,중구,중구 청계천로 274 다7호,37.56942586,127.0080476,,무료,02-2273-0111,,,헌책방      
69,69,,글벗서점,마포구,마포구 신촌로 48,37.55683681,126.9313194,,무료,02-333-1382,https://t1.daumcdn.net/thumb/R720x0/?fname=http://t1.daumcdn.net/brunch/service/user/5FsQ/image/GsxN-YsT_jAJNsdrhfv88ehHZxs.jpeg,,헌책방      
70,70,,글벗서점,강남구,강남구 도곡로 516 삼성상가 지하1층,37.49918128,127.0629879,,무료,02-557-8910,https://t1.daumcdn.net/thumb/R720x0/?fname=http://t1.daumcdn.net/brunch/service/user/5FsQ/image/GsxN-YsT_jAJNsdrhfv88ehHZxs.jpeg,,새책방      
71,71,,글벗서점,은평구,은평구 은평로 66,37.59879593,126.9151238,,무료,02-302-6621,https://t1.daumcdn.net/thumb/R720x0/?fname=http://t1.daumcdn.net/brunch/service/user/5FsQ/image/GsxN-YsT_jAJNsdrhfv88ehHZxs.jpeg,,새책방      
72,72,,글빛문고,양천구,양천구 목동중앙로 43 지하 1층,37.533541,126.8695252,,무료,02-2642-8360,https://search.pstatic.net/common/?autoRotate=true&quality=100&type=f640_380&src=https%3A%2F%2Fldb-phinf.pstatic.net%2F20200422_203%2F1587550011882jrC2s_JPEG%2F31hcdfZaHCzpeeGIDZVnPRPA.jpeg.jpg,,새책방      
73,73,,금지옥엽,중구,중구 청계천로 160 세운청계상가 3층 데크 가열 312호,37.56797986,126.9953651,,무료,02-2273-0220,https://storage.googleapis.com/real-seoul-image/place/b86ba3e0-839a-4ab7-87f7-c02d95091d2c.png,https://cherishstorage.kr/,새책방      
74,74,,기독성문서적,중구,중구 청계천로 274 다26호,37.56942586,127.0080476,,무료,02-2279-3902,https://mblogthumb-phinf.pstatic.net/MjAyMjAzMTVfNDAg/MDAxNjQ3MzUzNDQzNzc3.zEjefl-heoZBU48EFL1v6fAMehTOdoZ65DyT5BgKdesg.NQttq-0d1jPtcWsou63ug1cL-65HO-NrlRnwdkGPmKAg.JPEG.chumjan/20220311%EF%BC%BF162950.jpg?type=w800,,헌책방      
75,75,,깡지서점,관악구,관악구 신림로 30길 21,37.47318034,126.9358177,,무료,,https://search.pstatic.net/common/?autoRotate=true&quality=100&type=f640_380&src=https%3A%2F%2Fldb-phinf.pstatic.net%2F20171110_284%2F1510292901868EQw28_JPEG%2FNRGvSRkL4FGb9rWUDAihoTpr.jpg,,헌책방      
76,76,,꼬리달린책방(협동조합 카페마을),양천구,양천구 목동중앙북로16길 39,37.54447865,126.8739729,,무료,02-6052-0620,https://mblogthumb-phinf.pstatic.net/MjAxODEwMThfMiAg/MDAxNTM5ODQxMDQ5NDU4.edgOam1FC6REX-xkQhOCg9HwhP5b9jJOVjK51tw24eUg.uW5wy8ua4Gbc3EIqXoOXVMWKr86drj3l-4khxcSIPfwg.JPEG.seoulcoopcenter/1-1.jpeg?type=w800,https://www.instagram.com/tail_bookstore,새책방      
77,77,,꽃피는책,양천구,양천구 목동중앙북로16길 58,37.54353549,126.8738048,,무료,0507-1306-0858,https://www.100news.kr/imgdata/100news_kr/202107/2021071307137740.jpg,https://www.instagram.com/blooming__books,새책방      
78,78,,나나문고,강남구,강남구 선릉로 221 도곡렉슬상가 지하1층,37.49420684,127.0497348,,무료,02-571-4495,,,새책방      
79,79,,나라문고,강서구,강서구 강서로 247 지하1층,37.54779279,126.8360362,,무료,02-2603-3231,https://mblogthumb-phinf.pstatic.net/MjAyMTAxMzFfMTk5/MDAxNjEyMDcwMDc5NzM1.KVA4Y8Ij8SLl108MSoeIGGttGJhVEaLRZ31Y1kqR8Ksg.JtJ7IWd9DcVMWzyix6Yx3GKsnAbLtmPL05Seu55ISl8g.JPEG.kdongchae/SE-e6b0f1ed-5de2-11eb-9260-314eb4c2b76e.jpg?type=w800,,새책방      
80,80,,나무곁에서서,강서구,강서구 강서로76길 19,37.56934296,126.8426277,,무료,,https://search.pstatic.net/common/?autoRotate=true&quality=100&type=f640_380&src=https%3A%2F%2Fldb-phinf.pstatic.net%2F20200812_155%2F1597231324673mpXLi_JPEG%2FVL5TV-YaDocmaKwpl8xwveQ8.jpeg.jpg,https://blog.naver.com/bythetreebooks,새책방      
81,81,,나비루,송파구,송파구 올림픽로10길 40 102호,37.50818302,127.081577,,무료,070-7573-3034,https://mblogthumb-phinf.pstatic.net/MjAyMTA2MTFfMjI3/MDAxNjIzMzcxNTgzNjk4.0U7cqH7ncYK3qZk1EFp08DA0njDPSIIiJKvdguEx3YYg.OkxexY8JAKIDWTNDmL0olms5roeHwubjTk3t72X5hCQg.JPEG.songpaculture/%EB%82%98%EB%B9%84%EB%A3%A8(1).jpg?type=w800,https://www.instagram.com/nabirubook,새책방      
82,82,,날일달월,광진구,광진구 아차산로78길 7 유진스웰 B 202호,37.5503756,127.1092971,,무료,02-457-0102,,https://blog.naver.com/nalildalwol,새책방      
83,83,,남영서점,동작구,동작구 서달로 149,37.50677051,126.9614626,,무료,02-815-3830,https://mblogthumb-phinf.pstatic.net/MjAxNzA4MjlfNjEg/MDAxNTAzOTkwMDkyMDYx.r4N9TktiX6mLA01FZChKs7lA3CdisvYafHlEeiik4VUg.-rlS7B6wkWc01kuxdf47TH0cTY2vYINEjEYStnU8Rqsg.JPEG.greanb/17-08-18-19-21-16-707_photo.jpg?type=w420,,헌책방      
84,84,,낫저스트북스,성동구,성동구 성덕정9가길 14,37.53887486,127.0512958,,무료,070-4112-2016,"https://image.bookshopmap.com/600,fit,q60/venue/3172dd6654bb8.jpg",https://notjust-books.com,새책방      
85,85,,노른자책방,영등포구,영등포구 선유로9길 30 롯데캐슬상가 207호,37.52443186,126.8847533,,무료,0507-1351-0173,https://bookshopmap.s3.ap-northeast-2.amazonaws.com/venue/norunza_90965756_1067234946971709_3528335831236315508_n.jpg,https://blog.naver.com/norunza-art,새책방      
86,86,,노말에이,중구,중구 마른내로 12 4층,37.56460792,126.9891161,,무료,070-4681-5858 ,"https://image.bookshopmap.com/600,fit,q60/venue/newnormala-1-700x700.jpg?ver=1625464464",http://normala.kr,새책방      
87,87,,노원문고 본점,노원구,노원구 동일로 1384 지하1층,37.65234567,127.0615671,,무료,02-951-0633,"https://image.bookshopmap.com/600,fit,q60/venue/%E1%84%82%E1%85%A9%E1%84%8B%E1%85%AF%E1%86%AB1.jpeg?ver=1656983783",http://www.nowonbook.com,새책방      
88,88,,노원문고 제5매장,노원구,노원구 상계로 59 동명빌딩 지하1층,37.65616028,127.0615152,,무료,02-932-3822,https://mblogthumb-phinf.pstatic.net/MjAxODA4MThfMjYw/MDAxNTM0NTc2MDQwMzA3.GbfQlz-88UTl2vlxbfAhjo6SySaLL8H96a6uHfoJNtMg.4EMN-LkuKs2ohJBc1BQWcK8e3vBa6iAE6qdIOC6yMXgg.JPEG.cyberyw/1534575257932.jpg?type=w800,http://www.nowonbook.com,새책방      
89,89,,노원문고 중계점,노원구,노원구 중계로 206 지하1층,37.65084171,127.0775257,,무료,02-2091-0633,https://thumb.store114.net/640x480/8726097_1622766.jpg,http://www.nowonbook.com,새책방      
90,90,,뉴타운문고,강북구,강북구 도봉로 45 숭인시장 나진동1호,37.61314356,127.0294532,,무료,02-980-2105,,,새책방      
91,91,,늘벗서점,관악구,관악구 신림로 83,37.47034117,126.9401232,,무료,02-887-4971,https://mblogthumb-phinf.pstatic.net/MjAxOTA3MTBfNTcg/MDAxNTYyNzM3MzcxNDYy.razkxicaz8Y5gYPp8dalkbV9UC6C1VwkNy-g6-xwa5og.BCdDafSO61vZgMM_4taQX7aWy0T7bW8QT0BRl0ThwDsg.JPEG.hereis5/IMG_3029.JPG?type=w800,https://nbcpa.co.kr/shop/,새책방      
92,92,,늘푸른글방,영등포구,영등포구 영등포로 418-1,37.51259902,126.9243748,,무료,02-841-5139,https://search.pstatic.net/common/?autoRotate=true&quality=100&type=f640_380&src=https%3A%2F%2Fldb-phinf.pstatic.net%2F20190130_34%2F1548831954775gDtTO_JPEG%2FnT-K0vD09rZid_cQQ1qFbZ4l.jpg,,새책방      
93,93,,니은서점,은평구,은평구 연서로26길 35,37.61514899,126.9221987,,무료,02-6084-8433,"https://image.bookshopmap.com/600,fit,q60/venue/book_shop_nieun_89948053_891459657964731_6683372855570462579_n.jpg",https://cafe.naver.com/bookshopnieun,새책방      
94,94,,다름상상,광진구,광진구 구의로16길 93,37.54146317,127.0946077,,무료,,https://modo-phinf.pstatic.net/20230218_129/1676687163867k3g5G_JPEG/mosao2n31k.jpeg?type=f320_320,https://www.instagram.com/darmsangsang,새책방      
95,95,,다모아헌책방,동작구,동작구 사당로17길 25,37.4842974,126.9735363,,무료,0507-1406-8571,,,헌책방      
96,96,,다산서적,관악구,관악구 대학6길 19,37.46893814,126.9365331,,무료,02-883-9321,,http://www.acegosi.com,새책방      
97,97,,다솜서점,관악구,관악구 난우10길 6 지하1층,37.47606536,126.9180205,,무료,02-864-1330,https://search.pstatic.net/common/?autoRotate=true&quality=100&type=f640_380&src=https%3A%2F%2Fldb-phinf.pstatic.net%2F20221201_42%2F1669866758786GBDFi_JPEG%2F1669866531849.jpg,,새책방      
98,98,,다솜서점,노원구,노원구 동일로 1677 제성빌딩 지하1층,37.67818419,127.0549684,,무료,02-932-5808,https://search.pstatic.net/common/?autoRotate=true&quality=100&type=f640_380&src=https%3A%2F%2Fldb-phinf.pstatic.net%2F20221201_42%2F1669866758786GBDFi_JPEG%2F1669866531849.jpg,,새책방      
99,99,,다시서점,강서구,강서구 공항대로8길 77-24,37.5574055,126.8129789,,무료,0507-1411-4869,https://mblogthumb-phinf.pstatic.net/MjAyMjEwMTNfMjkw/MDAxNjY1NjMxOTkzNDc3.IftBWQAwew9XXisskASuOAYyIST2VG-qGpQvVX9pqUgg.l4TIdiEMazWl9kBxk2WWVXbYJRBldzm5TcOS-4lyXgIg.PNG.seoul_library/%EC%84%9C%EC%9A%B8%ED%98%95%EC%B1%85%EB%B0%A9_%EC%84%9C%EC%A0%90%EC%86%8C%EA%B0%9C__%EB%8B%A4%EC%8B%9C%EC%84%9C%EC%A0%90_%EC%86%8C%EA%B0%9C2.png?type=w800,https://dasibookshop.com,새책방      
100,100,,다온책방,성북구,성북구  한천로68길 31,37.60915189,127.0658626,,무료,02-6014-1414 ,https://sbnet.or.kr/sbnet_wp/wp-content/uploads/2018/06/448b4ce0ec61e7b926beefb0717e537b.jpg,,새책방      
101,101,,달걀책방,서대문구,서대문구 성산로9길 43-35,37.56765993,126.9229877,,무료,070-8822-2425,https://img1.daumcdn.net/thumb/R1280x0.fpng/?fname=http://t1.daumcdn.net/brunch/service/guest/image/L6uEuHg4SMVXyct99WVCOpYC3HU.png,https://www.eggbookshop.com,새책방      
102,102,,달마헌책방,관악구,관악구 남부순환로 1925 지하 1층,37.4775252,126.9632763,,무료,02-811-1256,https://t1.daumcdn.net/cfile/blog/99D599335D5AB5742D,http://www.dharmabooks.co.kr,헌책방      
103,103,,당인리책발전소,마포구,마포구 월드컵로14길 10-8,37.555689,126.9111491,,무료,02-8702-1022,"https://image.bookshopmap.com/600,fit,q60/venue/danginbookplant-building.jpeg",https://www.bronteshop.co.kr,새책방      
104,104,,대광서림,중구,중구 청계천로 274 다9호,37.56942586,127.0080476,,무료,02-2272-4741,https://mblogthumb-phinf.pstatic.net/MjAxOTAzMTJfMzYg/MDAxNTUyMzgxMDI2NzQ1.QF-KFKYicKEXvHCQxrFYtVGyH4pfqD17NsJH2UKBGVQg.K-xHbg8XqQhJpLxjpiVSzwUp241SFPS2lhVtVBjcWp8g.JPEG.medicalforum/SE-e2d10db2-97b3-4119-9638-5331429b2f20.jpg?type=w800,,헌책방      
105,105,,대교서적,영등포구,영등포구 국제금융로7길 22 대교비상가 116호,37.52325044,126.9330741,,무료,0507-1392-6407,,,새책방      
106,106,,대륙서점,동작구,동작구 성대로 40,37.49894128,126.9332915,,무료,02-821-8878,"https://image.bookshopmap.com/600,fit,q60/venue/daerukbooks_121598893_998194650649205_5867044620012662778_n.jpg",https://www.instagram.com/daerukbooks,새책방      
107,107,,대림문고,영등포구,영등포구 대림로 199 건용빌딩,37.49856075,126.8979202,,무료,02-841-1101,https://search.pstatic.net/common/?autoRotate=true&quality=100&type=f640_380&src=https%3A%2F%2Fldb-phinf.pstatic.net%2F20150901_73%2F1441054963978kmuyy_JPEG%2F11849680_0.jpg,,새책방      
108,108,,대민문고,관악구,관악구 관악로 212 관악프라자 지하1층,37.48362314,126.9551835,,무료,02-875-5300,https://mblogthumb-phinf.pstatic.net/MjAxODAxMjZfMTEz/MDAxNTE2OTE0NTU1NjY5.oNXiGjCCluSGvHyahFa5G80KKzanY28pz2Sm3wOd5Mwg.0_nFR-CISRO2hof27RXrnFEZiunoXn75iOtf4bWHq2og.JPEG.kjiwon1018/2018-01-08-16-16-28.jpg?type=w800,,새책방      
109,109,,대성서점,은평구,은평구 갈현로29길 51-30,37.62240897,126.9102646,,무료,02-357-3410,,,새책방      
110,110,,대승서적,종로구,종로구 율곡로14길 57,37.57377607,127.0041809,,무료,02-2277-0656,,,새책방      
111,111,,대영문고,강서구,강서구 양천로 669 2층,37.55185997,126.8712031,,무료,02-3663-7859,https://search.pstatic.net/common/?autoRotate=true&quality=100&type=f640_380&src=https%3A%2F%2Fldb-phinf.pstatic.net%2F20221222_279%2F1671697168013mRI58_JPEG%2FKakaoTalk_20221222_171505269.jpg,,새책방      
112,112,,대원서적,종로구,종로구 종로 258 덕성빌딩,37.5706569,127.0064795,,무료,02-2275-1543 ,,,새책방      
113,113,,대원서점,중구,중구 청계천로 274 다12호,37.56942586,127.0080476,,무료,02-2273-0109,https://search.pstatic.net/common/?autoRotate=true&quality=100&type=f640_380&src=https%3A%2F%2Fldb-phinf.pstatic.net%2F20190131_264%2F1548871653105sq7Yj_JPEG%2Fzzgv2IuHNnRHnCBCmqDzRDt4.jpg,,헌책방      
114,114,,대원서점,성북구,성북구 정릉로 241,37.60529785,127.010903,,무료,0507-1396-0660,https://search.pstatic.net/common/?autoRotate=true&quality=100&type=f640_380&src=https%3A%2F%2Fldb-phinf.pstatic.net%2F20190131_264%2F1548871653105sq7Yj_JPEG%2Fzzgv2IuHNnRHnCBCmqDzRDt4.jpg,,새책방      
115,115,,대원책문고,영등포구,영등포구 당산로45길 1 당산 삼성쉐르빌 205호,37.53323429,126.9005103,,무료,02-2671-2375 ,https://mblogthumb-phinf.pstatic.net/MjAyMjA4MjNfMjA3/MDAxNjYxMjYwNzY1NjAy.iWep5V8wnx5_1M4rkRuUWY9dKo90vEzzUdguAExfJiUg.s5YwZ7witDA9Hw2xqQLs4IzybIqO0JkkJu0QJRe-rcIg.JPEG.cnnjang/20220716%EF%BC%BF165920.jpg?type=w800,,새책방      
116,116,,대일서점,금천구,금천구 시흥대로 474,37.47586215,126.8990107,,무료,02-853-1948,https://dnvefa72aowie.cloudfront.net/business/bizPlatform/profile/14535024/1684208240348/NzgyOWY2OTE5MTZlMTIyOTIwMjM3MDIxN2UyNDMxMzQyZjYzMzJhZGY3YTNjODI5YmQwZTJlZWUyYTI3ODBlZV8wLmpwZWc=.jpeg?q=82&s=640x640&t=crop,,새책방      
117,117,,대지책문고,강서구,강서구 등촌로39길 13 지하1층,37.54552768,126.8614993,,무료,02-2644-2650,https://mblogthumb-phinf.pstatic.net/MjAyMTAyMTVfNTMg/MDAxNjEzMzk5Nzc2MzYx.rps35zPt47mUSj4Ac2Tb8o1ePWhmWu9gZd0epmr2I30g.mvjOoFMPXex1EalUGxptDZj-Y0yOKnatRsa4-debpE8g.JPEG.byun720/1613211449570.jpg?type=w800,,새책방      
118,118,,대천서점,관악구,관악구 남부순환로 1734 지하1층,37.48198569,126.9427729,,무료,02-878-7557,https://search.pstatic.net/common/?autoRotate=true&quality=100&type=f640_380&src=https%3A%2F%2Fldb-phinf.pstatic.net%2F20150831_181%2F1440998033404NNHB9_JPEG%2F106567464476194_0.jpg,,새책방      
119,119,,대흥서점,강북구,강북구 도봉로 49길 19,37.62495077,127.0254013,,무료,02-981-3214,,,헌책방      
120,120,,더레퍼런스,종로구,종로구 자하문로24길 44,37.58228897,126.9718052,,무료,070-4150-3105,https://www.the-ref.kr/data/file/program/1375734418_ualSw1BV_3fd047825189ece9822f8ee4ce84b85691867144.jpg,https://www.the-ref.kr,새책방      
121,121,,더레퍼런스(서소문점),중구,중구 덕수궁길 61 전시동 3층,37.56410607,126.9736993,,무료,,https://inmun360.culture.go.kr/upload/board/image/72/2372872_202209080824545680.png,https://www.the-ref.kr,새책방      
122,122,,더북소사이어티,종로구,종로구 자하문로19길 25 지하 1층,37.58213209,126.9695429,,무료,070-8621-5676 ,https://mblogthumb-phinf.pstatic.net/MjAxOTA5MTlfMjg2/MDAxNTY4ODY2NTc4NDkx.bve4eq25QdqwEDGKf4Byrj_GSTmvYpaUJwQKz-3oW-0g.6ZqqW1heaPkVfFaZrdF-JtBfxVmIQb02vIStX2QiMYUg.JPEG.seoul_library/Thebooksociety__14.jpg?type=w800,http://www.thebooksociety.org,새책방      
123,123,,더북스 금성서적,서초구,신반포로3길 8 B104 ,37.50213895,126.986904,,무료,02-599-4148,,,새책방      
124,124,,더북스 반포점,서초구,서초구 고무래로 22,37.5025732,127.0107579,,무료,02-3477-6545 ,,,새책방      
125,125,,더북스 신대방점,동작구,상도로 37,37.50001128,126.9246811,,무료,070-7574-4283,https://search.pstatic.net/common/?autoRotate=true&quality=100&type=f640_380&src=https%3A%2F%2Fldb-phinf.pstatic.net%2F20200315_23%2F1584243058539gM4pe_JPEG%2FHJblzm-ldR0KT8BCy2wICfcQ.jpg,,새책방      
126,126,,더북스 한길서점(방배),서초구,서초구 동작대로 132 안석빌딩 지하1층,37.48825796,126.9827699,,무료,02-591-2274,https://mblogthumb-phinf.pstatic.net/MjAyMTEwMDZfMTQ0/MDAxNjMzNTE0OTA5MzUx.s4ojo3i-Dg3gMCm-ruqCgQG5V_FpfRICb29M525SnSog.Rs3EcJSIrPAYWH84QSyYsPF9My2R_ASRSdpCADR9674g.JPEG.lhs080661/20211006%EF%BC%BF163209.jpg?type=w800,,새책방      
127,127,,더숲 초소책방,종로구,종로구 인왕산로 172,37.58595334,126.964277,,무료,02-735-0206,https://chosochaekbangs.files.wordpress.com/2020/12/newec9db4ebafb8eca7802.jpg,https://chosobooks.com/,새책방      
128,128,,덕인서림,중구,중구 청계천로 274 다32호,37.56942586,127.0080476,,무료,02-2273-8420,https://t1.daumcdn.net/cfile/tistory/99BCA8425AF9A9E135,,헌책방      
129,129,,도도봉봉,도봉구,도봉구 도봉로114길 57,37.64767751,127.0374983,,무료,0507-143-5335,https://mediahub.seoul.go.kr/uploads/mediahub/2022/08/yGHZUxCpQrCpMQudZufyoGBUkOOwOStu.JPG,https://m.blog.naver.com/dodobonbon,새책방      
130,130,,도원문고,성동구,성동구 독서당로 294 지하1층,37.5479506,127.0216299,,무료,02-2233-4286,,,새책방      
131,131,,도하서림,용산구,용산구 한강대로 104길 45 상아빌딩 401호,37.55057222,126.9746821,,무료,,https://mblogthumb-phinf.pstatic.net/MjAyMzAzMDZfMjU2/MDAxNjc4MDY1MDA0MzEx.Sjp47jwPgKSqgz3eTnmscfA2Hymsh2uAfYcTIVVpEDIg.gsCH09czeDQTPj-lQ8G-2dW8l789VXBx51KKkHc8dB0g.JPEG.dw033439/1678056034015%EF%BC%8D1.jpg?type=w800,https://dohabookstore.co.kr,새책방      
132,132,,도화북스(도화아파트먼트),마포구,마포구 도화2길 27,37.5395405,126.9494904,,무료,02-713-0227,"https://image.bookshopmap.com/600,fit,q60/venue/IMG_1745.jpg?ver=1650340861",https://dohwa-apartment.com,새책방      
133,133,,동남서적,종로구,종로구 종로6가 267-1,37.57104979,127.006996,,무료,02-2266-0924,https://www.barovone.com/data/upload/company/%EC%A2%85%EB%A1%9C%EB%AC%B8%EA%B3%A0.jpg,,새책방      
134,134,,동네책방 원테이블,금천구,금천구 독산로8길 14,37.44934994,126.9063021,,무료,02-896-0512,"https://image.bookshopmap.com/600,fit,q60/venue/onetable_o_87755577_232759124429641_1896213711589654987_n.jpg?ver=1623119958",https://www.instagram.com/onetable_o,새책방      
135,135,,동네책방개똥이네책놀이터,마포구,마포구 월드컵로 128-3,37.55982606,126.9071049,,무료,02-338-0478,https://mblogthumb-phinf.pstatic.net/MjAyMTA2MTFfMTQg/MDAxNjIzNDA4MTI4MDcz.v4GdrNqBYjDMbFgXGK_Znyw_JZ09BrxwTjtGvESy9zYg.B4o_UKClW1sqvaWf4agWZ-6UTR--60FyiM8Rp_jSX5Ig.PNG.oinkhoney/SE-c9a29718-52de-4fb5-b1b3-5fff9c94159b.png?type=w800,http://cafe.naver.com/dongneabook,새책방      
136,136,,동명서점,종로구,"종로구 종로 266, A-20호",37.5706569,127.0064795,,무료,02-2265-6696,,,새책방      
137,137,,동방서적,구로구,구로구 경인로 219 지하1층,37.49681576,126.8450708,,무료,02-2616-9911,https://mblogthumb-phinf.pstatic.net/MjAxNzAxMDlfNCAg/MDAxNDgzOTQzODQ0Njgy.WzLVV4ce_YBi4lV0QUt-Sq2b1u3Yxo7l3IOPUd7EYqgg.1u7rcaWG4y9DH56VO38aydoc70cogKcbY3Wpqva6s44g.JPEG.bernouihotel/image_2433185121483943768139.jpg?type=w800,,새책방      
138,138,,동북문고,강동구,강동구 양재대로 1341 지하1층,37.52615734,127.1351684,,무료,02-477-8200,https://mblogthumb-phinf.pstatic.net/MjAyMTAzMTVfMTg1/MDAxNjE1Nzk4ODk2NDMy.I-AhPy5Rndia-EouoShXyuDero-IekUQ0YGKr20C4eMg.2SODmAaUdnvIK1iDdZjbK1taWRzTBjj3goErDvt7zrsg.JPEG.beo-kum/KakaoTalk_20210315_172059895.jpg?type=w800,,새책방      
139,139,,동신서림,중구,중구 청계천로 246  다139호,37.56936838,127.0047211,,무료,02-2273-3411,https://seoulbookbogo.kr/front/img/spic02_1.png,,헌책방      
140,140,,동아서점,중구,중구 청계천로 274 다11호,37.56942586,127.0080476,,무료,02-2272-4013,https://search.pstatic.net/common/?autoRotate=true&quality=100&type=f640_380&src=https%3A%2F%2Fldb-phinf.pstatic.net%2F20190131_210%2F1548871706785f1pCT_JPEG%2FoTsooWi7x9PWUjzQ0ZjsjbW7.jpg,,헌책방      
141,141,,동아서점,도봉구,도봉구 덕릉로 253,37.64029729,127.0393961,,무료,02-904-1360,https://search.pstatic.net/common/?autoRotate=true&quality=100&type=f640_380&src=https%3A%2F%2Fldb-phinf.pstatic.net%2F20190131_210%2F1548871706785f1pCT_JPEG%2FoTsooWi7x9PWUjzQ0ZjsjbW7.jpg,,새책방      
142,142,,동아서점,강남구,강남구 압구정로 29길 68,37.53253638,127.0291865,,무료,02-545-0948,https://search.pstatic.net/common/?autoRotate=true&quality=100&type=f640_380&src=https%3A%2F%2Fldb-phinf.pstatic.net%2F20190131_210%2F1548871706785f1pCT_JPEG%2FoTsooWi7x9PWUjzQ0ZjsjbW7.jpg,,새책방      
143,143,,동양서림,종로구,종로구 창경궁로 271-1,37.58556826,127.0006014,,무료,02-762-0715,https://mblogthumb-phinf.pstatic.net/MjAxOTA2MTBfMTI2/MDAxNTYwMTY0MDE3Nzgy.dCU6xlfMQe4yt2DvuqdKS77tdbPHVeJqrMaRO2sbgssg.2GdSNhJCMTAMnULeFrXhpE4Hg5Z9nVq3P3Nts7CMKp4g.JPEG.seoul_library/SE-a5e8f851-3a7e-41e2-b478-01882f005b68.jpg?type=w800,https://blog.naver.com/dilek_choi,새책방      
144,144,,동일서점프라자,금천구,금천구 금하로 771,37.45050633,126.9155489,,무료,02-802-7446,https://mblogthumb-phinf.pstatic.net/MjAyMTA1MDRfMyAg/MDAxNjIwMTA0NzU3NjY5.NIyhdsBUGyPsYP1NeOW0dRr7aJUYx-_mlXbbdVp8cPIg.1TLeqblSiEJytH5_hVC3oWW04EKUFn_I0naapK9dpNcg.JPEG.sdmstory/_REE8699.jpg?type=w800,,새책방      
145,145,,동지서적,종로구,종로구 김상옥로 64-1 여양진씨대종회 회관,37.57336582,127.0048969,,무료,02-762-7596,https://map3.daumcdn.net/map_roadview/2022/09/9131677/2_100129_9131677_20220919003100_cube/left_1200.jpg,,새책방      
146,146,,동화마을,중구,중구 청계천로 274 다91호,37.56942586,127.0080476,,무료,02-2278-0408,,,헌책방      
147,147,,두나서점(도곡점),강남구,강남구 선릉로 325 지하1층,37.49859224,127.0515659,,무료,02-561-4326,,http://blog.naver.com/ydss0561,새책방      
148,148,,드림서점,관악구,관악구 은천로25길 27 하우젠빌 104호,37.48794795,126.9493096,,무료,02-887-4940,https://mblogthumb-phinf.pstatic.net/MjAxOTA1MTBfMjE2/MDAxNTU3NDU0ODgwNjY4.P1lGA9gkkUz370NZ2mZCdCDDpghAMK6YsADroOMAUvQg.zMCcfjII7VSKGXpj1rFa67e-ravGwv7XzLJGs72xaxog.JPEG.kbcheckcard/2.%EC%B4%88%EC%9B%90%EC%84%9C%EC%A0%90.JPG?type=w800,,새책방      
149,149,,디자인북,마포구,마포구 동교로 148-8,37.55501333,126.9186372,,무료,02-333-0342,"https://image.bookshopmap.com/600,fit,q60/venue/inabooks_15306518_199105787163511_4407194688365264896_n.jpg",http://designbook.co.kr/,새책방      
150,150,,땡스북스,마포구,마포구 양화로6길 57-6,37.54886806,126.9177079,,무료,02-325-0321,https://ak-d.tripcdn.com/images/1i63v223488xjxl2o7131.jpg?proc=source/trip,http://www.thanksbooks.com,새책방      
151,151,,라이너노트,마포구,마포구 양화로15안길 6,37.55446549,126.9188414,,무료,070-7730-2463,https://mblogthumb-phinf.pstatic.net/20160621_144/pageturner_kr_1466437993970R8wcG_JPEG/%C0%BD%BE%C7%BC%AD%C1%A1_%B6%F3%C0%CC%B3%CA_%B3%EB%C6%AE.jpg?type=w800,https://smartstore.naver.com/linernote,새책방      
152,152,,로뎀서적,강서구,강서구 월정로 128-1 지하1층,37.53063817,126.8381598,,무료,02-2699-5365,,,새책방      
153,153,,로우북스,마포구,마포구 포은로 56,37.552386,126.9067828,,무료,,https://bookshopmap.s3.ap-northeast-2.amazonaws.com/venue/KakaoTalk_20220102_162543932_23c34a80.jpeg?ver=1641197645,https://lowbooks.notion.site,새책방      
154,154,,로프 에디션스,마포구,마포구 희우정로16길 50,37.55474866,126.9047167,,무료,0507-1325-5519,https://mblogthumb-phinf.pstatic.net/MjAyMTAzMDlfOTcg/MDAxNjE1Mjk0Njc5MTY3.VlAcWTBy9u02-Rhvm8jlyVQxNq8qdMK-3KoWNsXYjiQg.14sOAXHrDjw8hQezg4TUbr9qwnCR-bX1yybE-jdTrWgg.JPEG.ottff123/SE-22B37272-0C55-4D43-8D18-79E008692343.jpg?type=w800,https://www.instagram.com/ropeeditions/,새책방      
155,155,,로프트북스,종로구,종로구 창의문로 129 2층,37.5923736,126.9659978,,무료,0507-1310-3225,https://storage.heypop.kr/assets/2021/12/02170437/IMG_5462.jpeg,https://brunch.co.kr/@analogcabinet,새책방      
156,156,,마들문고,노원구,노원구 동일로 1550 고려프라자빌딩 지하1층,37.66691162,127.0575497,,무료,02-938-0028,,,새책방      
157,157,,마음책방 서가는,종로구,종로구 창경궁로35길 21,37.58698605,127.0017643,,무료,070-8818-0137 ,https://mblogthumb-phinf.pstatic.net/MjAxOTA3MTdfMTgz/MDAxNTYzMzYzNDk2Nzky.hkiddVGKUhFXSpGSvhixgpajS66NtscgAfB4zLhwusIg.sPjZypwRrz3ZzxuKiWwxVUYPLaE6RZ8ceGU98VkCsrgg.JPEG.seoul_library/MindstoreS__51.jpg?type=w800,https://smartstore.naver.com/houseinmind,새책방      
158,158,,마이어 날다,용산구,용산구 서빙고로 17 용산센트럴파크 해링턴스퀘어 상가 Mall D 2층 43호,37.52690561,126.9665662,,무료,0507-1324-7487,https://bookshopmap.s3.ap-northeast-2.amazonaws.com/venue/meiernalda.jpeg,https://blog.naver.com/meiernalda,새책방      
159,159,,마이페이브리트,종로구,종로구 자하문로 121 지하 1층,37.58686372,126.9694751,,무료,02-544-9319,https://search.pstatic.net/common/?autoRotate=true&quality=100&type=f640_380&src=https%3A%2F%2Fldb-phinf.pstatic.net%2F20230119_32%2F1674117520214dnQGb_JPEG%2F20230119_173732.jpg,http://www.alicesugar.com/,새책방      
160,160,,마중물서점,송파구,송파구 삼전로 99,37.50726237,127.0901339,,무료,02-425-7279,https://mblogthumb-phinf.pstatic.net/MjAyMjAyMjhfMTU0/MDAxNjQ2MDE2MTk1NzI0.K7qT3ZOyzxebBwTG-05kUrQZ_mGbZffGvnfQx7MvuN4g.Z7XDK2JEa46H1y66IebOerA0Df8NwwdhJajAphs4Z24g.JPEG.mijeongchoi/IMG_0783.JPG?type=w800,,새책방      
161,161,,마포문고,마포구,마포구 큰우물로 60 지하1층,37.54182496,126.9448138,,무료,0507-1315-0066,https://search.pstatic.net/common/?autoRotate=true&quality=100&type=f640_380&src=https%3A%2F%2Fldb-phinf.pstatic.net%2F20171223_24%2F1514011250628HwScO_JPEG%2FiJsbB525pj45Ahbj7pLfx-_h.jpg,https://www.instagram.com/mapomoongo,새책방      
162,162,,마포문구문고,강서구,강서구 화곡로 404 1층,37.55924246,126.8544406,,무료,02-3664-1704,,,새책방      
163,163,,만나서적,종로구,종로구 율곡로14길 57,37.57377607,127.0041809,,무료,02-2267-7385,https://mblogthumb-phinf.pstatic.net/MjAyMzAyMDJfMjE4/MDAxNjc1MjY3MDk5MDk5.wpj8onx9Bjw_JXZgtdRWur5F_xhzw46uVQEcMGmxAWwg.YU7lJF53xbtrEE14EVwOdYwsToG_ARpCyw9iZz_FDR0g.JPEG.bluevisions/%ED%96%87%EB%B9%9B%EB%AC%B8%EA%B3%A0_(4).jpg?type=w800,,새책방      
164,164,,만유인력,마포구,손기정로 52,37.55617216,126.9623763,,무료,0507-1328-5935,https://street-h.com/wp-content/uploads/2021/07/manuuillyeok2.jpg,https://blog.naver.com/universalgravity,새책방      
165,165,,만점문고,영등포구,영등포구 당산로44길 3,37.53191435,126.9010775,,무료, 02-2672-2375 ,,,새책방      
166,166,,만화뱅크,노원구,노원구 초안산로 19,37.62954665,127.0541691,,무료,,,,헌책방      
167,167,,만화살롱 유어마나,마포구,마포구 와우산로 13 지하1층,37.54565425,126.9227213,,무료,02-332-7972 ,https://www.your-mana.com/new/assets/images/abouts.jpg,http://www.your-mana.com,새책방      
168,168,,매거진랜드,마포구,마포구 잔다리로6길 17 1층,37.55224414,126.9201179,,무료,02-3142-6460,"https://image.bookshopmap.com/960,fit,q60/venue/magazineland_seoul.jpg?ver=1615968149",http://www.magazineland.co.kr,새책방      
169,169,,매일문고,은평구,은평구 서오릉로 133,37.61062883,126.9178217,,무료,02-355-0262,https://search.pstatic.net/common/?autoRotate=true&quality=100&type=f640_380&src=https%3A%2F%2Fldb-phinf.pstatic.net%2F20191217_234%2F1576562341964oYlxP_JPEG%2FpyWXQYrr5Wxpy-bmARKMPX4I.jpg,,새책방      
170,170,,메종인디아 트래블앤북스,서초구,서초구 방배로23길 31-43,37.48508984,126.9922195,,무료,0507-1314-1045,https://mblogthumb-phinf.pstatic.net/MjAxOTExMThfNDUg/MDAxNTc0MDQ2NTQ5MDI2.Q89B-9-mHxJBbuEBqCegMIPBLehzwU54mp-0cNtyZDIg.T6vqSYLOeRgRWBWz8F1Csp8kaWpo_lRb9KofwcE4Sxgg.JPEG.seoul_library/SE-e2352d8c-d50b-4f0f-9a08-3a0646b5654b.jpg?type=w800,http://www.maisonindia.co.kr,새책방      
171,171,,명덕서점,강서구,강서구 공항대로36길 91,37.5544673,126.8362392,,무료,02-2663-8874,,,새책방      
172,172,,명동문고,중구,서울 중구 명동길 66,37.56392941,126.9860336,,무료,02-752-2015,https://mblogthumb-phinf.pstatic.net/MjAyMjAxMDNfMjc4/MDAxNjQxMjE4MzczNTgz.hT11Cg8WO0jfZrL0n4CSjeoh9K0VyFQmHkboGFtB6IYg.l_jd4nM8t-0N9b5CS_tf7s3lRjdvr5d6OxTR_zRk77wg.JPEG.popo626/output_1715288862.jpg?type=w800,,새책방      
173,173,,명지서점,서대문구,서대문구 가좌로 120,37.58322713,126.9255128,,무료,02-305-6467,https://search.pstatic.net/common/?autoRotate=true&quality=100&type=f640_380&src=https%3A%2F%2Fldb-phinf.pstatic.net%2F20150831_190%2F1440994930591ppflF_JPEG%2F106478417979247_0.jpg,,새책방      
174,174,,모닝책서점(모닝글로리),도봉구,도봉구 시루봉로 67,37.65683757,127.0275781,,무료,02-956-9227,https://search.pstatic.net/common/?autoRotate=true&quality=100&type=f640_380&src=https%3A%2F%2Fldb-phinf.pstatic.net%2F20150901_246%2F1441037078599NVKlR_JPEG%2F166176614469938_0.jpg,,새책방      
175,175,,모모,도봉구,도봉로181나길 16 B1,37.68345125,127.0444235,,무료,0507-1302-9640,,https://www.facebook.com/mojorimoida,새책방      
176,176,,목동문고,양천구,양천구 목동서로 400 10단지아파트 A상가 지하 1층,37.51500506,126.8580457,,무료,0507-1389-3070,https://bookshopmap.s3.ap-northeast-2.amazonaws.com/venue/02.jpeg?ver=1625463385,http://www.mokdongbs.com/,새책방      
177,177,,무아레 서점,동대문구,천호대로89길 9 2층,37.56228522,127.0680643,,무료,0507-1307-7656,"https://image.bookshopmap.com/600,fit,q60/venue/moire_books_244456481_1580883902250978_1813600475592035157_n.webp.jpg?ver=1635050742",https://www.instagram.com/moire_books,새책방      
178,178,,무엇보다 책방,송파구,송파구 백제고분로 45길 30 미석빌딩 305호 ,37.51049471,127.1084796,,무료,0507-1398-1880,https://bookshopmap.s3.ap-northeast-2.amazonaws.com/venue/more.than_anything_117266898_2764178720526910_819908212761538129_n.jpg,https://smartstore.naver.com/morethananthing,새책방      
179,179,,문성서점,중구,중구 청계천로 274 다82호,37.56942586,127.0080476,,무료,02-2266-3772,,,헌책방      
180,180,,문학살롱 초고,마포구,독막로2길 30,37.54727401,126.9142783,,무료,02-332-7579,"https://mp-seoul-image-production-s3.mangoplate.com/80444_1640821611961849.jpg?fit=around|512:512&crop=512:512;*,*&output-format=jpg&output-quality=80",https://www.instagram.com/chogo_seoul,새책방      
181,181,,문향서점,중구,중구 수표로2길 11,37.56223378,126.9911499,,무료,02-2274-5434,,,새책방      
182,182,,문화공간 길담,종로구,종로구 자하문로17길 12-9,37.58173442,126.9696777,,무료,02-722-1368,https://blog.kakaocdn.net/dn/YYtMv/btrd1xYNdP3/QkP58PqSucfA4myoOKdtjk/img.jpg,https://cafe.naver.com/gildamspace,새책방      
183,183,,문화문고,서대문구,서대문구 간호대로 4,37.59663765,126.9490122,,무료,02-395-4097,https://search.pstatic.net/common/?autoRotate=true&quality=100&type=f640_380&src=https%3A%2F%2Fldb-phinf.pstatic.net%2F20190206_119%2F1549431229867VfMt7_JPEG%2F6fL5dI3A6YqlhNqlhpIkrN9B.jpg,https://munhwamungo.modoo.at,새책방      
184,184,,문화서점,마포구,마포구 성암로 267 mbc 지하 1층 mbc몰,37.58112342,126.890989,,무료,0507-1302-3898,,https://www.instagram.com/munhwabooks/,새책방      
185,185,,문화서점,동작구,동작구 상도로 175,37.50454902,126.9382077,,무료,02-823-5204,,,헌책방      
186,186,,문화서점,성북구,성북구 정릉로 330-1,37.60196033,127.0197434,,무료,02-917-6874,,http://www.bookst.co.kr,헌책방      
187,187,,뭐든지 책방,종로구,종로구 창신길 119,37.57669052,127.0100096,,무료,02-766-3581,https://search.pstatic.net/common/?autoRotate=true&quality=100&type=f640_380&src=https%3A%2F%2Fldb-phinf.pstatic.net%2F20210820_217%2F1629429159384jQhUN_JPEG%2FRVZhbgpPrj94kat3_YoH_Ss_.jpg,https://blog.naver.com/mordeunji,새책방      
188,188,,미스터리 유니온,서대문구,서대문구 이화여대길 88-11,37.55935841,126.9437109,,무료,02-6080-7040,"https://image.bookshopmap.com/600,fit,q60/venue/mysteryunion_bookshop.jpg",https://www.instagram.com/mysteryunionbook,새책방      
189,189,,미하북스,은평구,은평구 증산로21길 10-1,37.59601054,126.9136736,,무료,02-355-1876,,mihabooks.com,새책방      
190,190,,민영서점,도봉구,도봉구 도봉로 180나길 41 한신쇼핑 3층 318호,37.68434454,127.0498958,,무료,02-955-7046,,,새책방      
191,191,,민중서림,중구,중구 청계천로 274 다14호,37.56942586,127.0080476,,무료,02-2265-3314,https://cdn.newspost.kr/news/photo/201603/46927_51939_4246.jpg,,헌책방      
192,192,,믿음문고,서초구,서초구 양재천로 95-4,37.47619357,127.0395963,,무료,0507-1332-8248,"https://image.bookshopmap.com/960,fit,q60/venue/%E1%84%86%E1%85%B5%E1%86%AE%E1%84%8B%E1%85%B3%E1%86%B7%E1%84%86%E1%85%AE%E1%86%AB%E1%84%80%E1%85%A9-md.jpg?",https://smartstore.naver.com/fflbooks,새책방      
193,193,,밍키,중구,중구 청계천로 274 다10호,37.56942586,127.0080476,,무료,02-2273-9905,,,헌책방      
194,194,,바람길,중랑구,중랑구 망우로 332,37.59700674,127.0892755,,무료,02-434-6449,"https://image.bookshopmap.com/600,fit,q60/venue/baramgilbooks_18580844_1362787463812500_8696973870030127104_n.jpg",http://www.facebook.com/baramgilbooks,새책방      
195,195,,반도서점,금천구,금천구 독산로 136,37.45950062,126.9052313,,무료,02-805-9839,,,새책방      
196,196,,밝은책방,관악구,관악구 봉천로 540-1 2층,37.47838571,126.9577682,,무료,0507-1388-6511,https://mblogthumb-phinf.pstatic.net/MjAyMjA5MjRfNTgg/MDAxNjY0MDI5MDExMTUw.tWvks4SGINKmWuQZRhLYdCxNax3PwwzFHrAxw6Yd95kg.gzCx2n1iOkUbMfMY0rtMATKHjtNHbm5rQmIznFMu76Ug.JPEG.tmddk778/1664029009562.jpg?type=w800,https://linktr.ee/brightbooks_law,새책방      
197,197,,밤의서점,서대문구,서대문구 성산로 309-51,37.56671359,126.9240556,,무료,,https://mblogthumb-phinf.pstatic.net/MjAxNzExMDhfMTk2/MDAxNTEwMDY5MzA4NjM5.MhqxCEGFTsL9bfbw7WL7H8gTf4N0ySrgdVCX4cJX38Eg.4S3rU9VRPy7bM9oje4q94dADvPr9bcpBUf6MPeQO5iEg.JPEG.yeji7321/image_7359585931510069218127.jpg?type=w800,https://smartstore.naver.com/nightbookstore,새책방      
198,198,,배광서점,양천구,양천구 목동중앙남로 28,37.53647642,126.8673893,,무료,02-2643-1020 ,,,새책방      
199,199,,배화우리서점,종로구,종로구 필운대로1길 31,37.57777837,126.9677399,,무료,02-738-9184,"https://image.bookshopmap.com/960,fit,q60/venue/%E1%84%8B%E1%85%AE%E1%84%85%E1%85%B5%E1%84%89%E1%85%A5%E1%84%8C%E1%85%A5%E1%86%B71.jpg?ver=1642049507",,새책방      
200,200,,백호문구서점,마포구,마포구 광성로6안길 10,37.54886866,126.9381762,,무료,02-716-8628,,,새책방      
201,201,,번동문고,강북구,강북구 오현로 191 지하1층,37.62882043,127.0391947,,무료,02-981-8425,https://search.pstatic.net/common/?autoRotate=true&quality=100&type=f640_380&src=https%3A%2F%2Fldb-phinf.pstatic.net%2F20200524_213%2F1590310570908JKiau_JPEG%2FkVhKv0enY8VxQ4o_xtizcEzL.jpg,,새책방      
202,202,,번역가의 서재,마포구,마포구 동교로17길 67 101호,37.55765179,126.9142773,,무료,0507-1367-7421,,https://www.instagram.com/tlbseoul,새책방      
203,203,,법문서적,관악구,신림로23길 16 2층,37.47048117,126.9344768,,무료,02-882-3333,https://dnvefa72aowie.cloudfront.net/business-profile/bizPlatform/profile/13945477/1672459718994/Njc3ZjIzOGIyZGMxNTk4Y2EwNjZiOGQ2YWY5YTAwOWRjZmYyMDlmNjQwN2ExNmMxNjMzMzE3ZjA4NWNlYjU2YS5qcGc=.jpeg?q=95&s=1440x1440&t=inside,http://www.bubmoon.com,새책방      
204,204,,벧엘서점,강서구,강서구 강서로47길 36,37.55295337,126.8341859,,무료,02-2663-1678,,,새책방      
205,205,,별책방(구예스서점),서대문구,서대문구 거북골로20길 71 창경빌딩 지하1층,37.58107104,126.9112801,,무료,0507-1317-0139,https://mblogthumb-phinf.pstatic.net/MjAyMTA5MTVfMjc5/MDAxNjMxNjkwMDcxNDE0.DRih4ry8puaEqdkxJFM2E55dTQGxcMNHZ51CDTnj9VIg.437MAf20dLTQ311-grojvJanVJHnJaIXVrvHhpXzqM8g.JPEG.simmir76/KakaoTalk_20210915_153922973_02.jpg?type=w800,,새책방      
206,206,,별책부록,용산구,용산구 신흥로16길 7,37.54493118,126.9869973,,무료,070-4007-6690,"https://image.bookshopmap.com/600,fit,q60/venue/BC777A64-A8DB-4BEB-B01C-2D58E70DC1EC.JPG?ver=1624955073",https://www.byeolcheck.kr,새책방      
207,207,,보람책문고,노원구,노원구 한글비석로 466 지하1층,37.66457189,127.0664179,,무료,02-935-4999,,,새책방      
208,208,,보성서점,강동구,강동구 양재대로89길 28,37.52689198,127.133932,,무료,02-483-1477,,,새책방      
209,209,,보안책방,종로구,종로구 효자로 33 2층,37.57911789,126.9736303,,무료,02-720-8409,"https://image.bookshopmap.com/600,fit,q60/venue/boanbooks_72579245_545251769608887_3960226961292654623_n.jpg",http://b1942.com,새책방      
210,210,,본동서적,금천구,금천구 금하로 631-7,37.45514372,126.9012035,,무료,02-893-0158,https://search.pstatic.net/common/?autoRotate=true&quality=100&type=f640_380&src=https%3A%2F%2Fldb-phinf.pstatic.net%2F20210310_161%2F1615340996061LIlso_PNG%2FfMELe4YkJp5LytYupGkk15Rs.png,,새책방      
211,211,,부비프,성북구,성북구 보문로30가길 31,37.58926091,127.0214972,,무료,,https://mblogthumb-phinf.pstatic.net/MjAyMDA3MDlfMTQy/MDAxNTk0MjY0NjU0MDkz.vToHg6CHvNh4e-Zk2wYXn0CcXdjGx26-hQmBG70zeIcg.uYEGiv_FIH2KenMjwZeG0NIfDrRAripvGOJG3V71rAUg.JPEG.storysb/504310C2-45F7-4009-941B-E20197D93466.jpeg?type=w800,https://www.instagram.com/buvif.bookshop,새책방      
212,212,,북데이423,강동구,강동구 고덕로 266,37.55469368,127.1551146,,무료,02-442-5581,https://mblogthumb-phinf.pstatic.net/MjAyMTA4MTlfMjUx/MDAxNjI5MzcyMzA1NTk3.AfZrWbd6o-VoNWNVOS5sxJLaWgkYBJK0ZwXANfz7xGMg.7GoUbksUI94ZtoykyjZP3E1k0YwwTbwHjOdfuZ-YjyIg.JPEG.daji1/IMG_3561.JPG?type=w800,https://www.instagram.com/bookday423_official,새책방      
213,213,,북라인,관악구,관악구 신림로28길 81,37.47202216,126.9378065,,무료,02-883-4939,,http://gosibookline.co.kr/,새책방      
214,214,,북바이북,종로구,종로구 새문안로5길 19 로얄빌딩,37.57202956,126.9742933,,무료,0507-1313-0416,"https://image.bookshopmap.com/600,fit,q60/venue/%E1%84%87%E1%85%AE%E1%86%A8%E1%84%87%E1%85%A1%E1%84%8B%E1%85%B5%E1%84%87%E1%85%AE%E1%86%A8_72f1f9ee.jpg?ver=1665372313",http://bookbybook.co.kr,새책방      
215,215,,북뱅크,노원구,노원구 한글비석로 242 삼부프라자 지하1층,37.6492349,127.0769736,,무료,02-2091-0304,,,새책방      
216,216,,북새통문고,마포구,마포구 양화로 188 애경타워 5층,37.55774581,126.9264983,,무료,02-324-0211,"https://image.bookshopmap.com/600,fit,q60/venue/E0OpuJXUcAMjL2D.jpeg?ver=1622682704",,새책방      
217,217,,북스리브로(구로점),구로구,구로구 구로중앙로 152 NC신구로점 5층,37.50116014,126.882773,,무료,070-4726-2825,"https://static.wixstatic.com/media/f6c3ea_5f3f59707f3c4336ad88e1ab1577dbdd~mv2.jpg/v1/fill/w_1860,h_1198,al_c,q_90,usm_0.66_1.00_0.01,enc_auto/f6c3ea_5f3f59707f3c4336ad88e1ab1577dbdd~mv2.jpg",https://www.bookslibro.com,새책방      
218,218,,북스리브로(상봉점),중랑구,중랑구 상봉로 131 상봉 듀오트리스 지하 1층,37.59740662,127.0921776,,무료,070-4726-7775 ,"https://static.wixstatic.com/media/f6c3ea_9e7e165cafca4303b1197690903d5d3a~mv2.jpg/v1/fill/w_1860,h_1200,al_c,q_90,usm_0.66_1.00_0.01,enc_auto/f6c3ea_9e7e165cafca4303b1197690903d5d3a~mv2.jpg",https://www.bookslibro.com,새책방      
219,219,,북스토어17,마포구,독막로5길 33,37.54943953,126.9185605,,무료,0507-1436-0531,https://street-h.com/wp-content/uploads/2022/01/bookstore17_1.jpg,https://bookstore17.com,새책방      
220,220,,북스피리언스,마포구,마포구 연남로11길 34 지하1층,37.56540751,126.9170931,,무료,02-324-2399,https://storage.googleapis.com/real-seoul-image/place/a63d61ee-b22a-474e-b827-e2e4a9359d0a.png,https://smartstore.naver.com/booksperience,새책방      
221,221,,북악서점,성북구,성북구 정릉로 159,37.60779676,127.0027864,,무료,02-942-0649,,,새책방      
222,222,,북오피스,강서구,강서구 공항대로48길 47,37.55261303,126.8545282,,무료,02-2242-6460,,,새책방      
223,223,,북촌책방,종로구,종로구 북촌로5길 19-12,37.5789522,126.9842012,,무료,02-995-6630,https://inmun360.culture.go.kr/upload/board/image/75/2361375_201811141620507960.JPG,https://blog.naver.com/bcbooks1201,헌책방      
224,224,,북커스,종로구,종로구 평창30길 10 2층,37.6109244,126.9751427,,무료,02-394-4588,https://mblogthumb-phinf.pstatic.net/MjAxOTA4MTBfMTI2/MDAxNTY1NDE1ODkyNTU4.lfgwXDSdObGRzmhongWLPghuDmbBaIZ77Z60EfQ00D4g.99JqpuTKJvpypL5GlirxB6O2btLuLZ9I6fGGhaJ5me0g.JPEG.crystalworks/%EB%B6%81%EC%BB%A4%EC%8A%A4_7.jpg?type=w800,https://post.naver.com/bluzine?fbclid=IwAR0sKw4HJh8JkPmunzO6sNDEbtaARHpYA4NdehuSBRfWW9DPCZy6RCJrXgM,새책방      
225,225,,북티크,마포구,독막로31길 9 2층,37.55358661,126.9187818,,무료,0507-1394-1141,https://street-h.com/wp-content/uploads/2016/07/%E1%84%87%E1%85%AE%E1%86%A8%E1%84%90%E1%85%B5%E1%84%8F%E1%85%B3_20160711_01.jpg,https://www.booktique.kr,새책방      
226,226,,분당책선생,송파구,송파구 송파대로 425 문화빌딩 지하1층,37.5046823,127.1071315,,무료,02-424-4142,,,헌책방      
227,227,,비건책방 서울,서대문구,서대문구 가재울로2안길 29-14,37.57530743,126.9238625,,무료,0507-1340-0424,https://post-phinf.pstatic.net/MjAyMjEwMTNfMjUy/MDAxNjY1NjI0NzQxODk1.XsIlmHNFMkA9pe4vuHqp3hQQ9PgTyOmuWdfBmm3bK7gg.GA4GlOAYl0Ugj6L-NwHj7MCY7LVpUQub9Hf7Nksao0Eg.JPEG/KakaoTalk_20221013_102320024.jpg?type=w800_q75,https://blog.naver.com/veganbooks_,새책방      
228,228,,비엥북스,은평구,은평구 서오릉로 149 쿠아레비 구산점 내,37.60590116,126.9223492,,무료,0507-1411-7870,https://mblogthumb-phinf.pstatic.net/20160430_258/josephn628_1462017105228m1KzM_JPEG/R0008644.JPG?type=w800,https://smartstore.naver.com/bienbooks,새책방      
229,229,,비플랫폼(B-Platform),마포구,마포구 독막로2길 22 3층,37.54763092,126.9144439,,무료,070-4001-8388,"https://image.bookshopmap.com/600,fit,q60/venue/%E1%84%87%E1%85%B5%E1%84%91%E1%85%B3%E1%86%AF%E1%84%85%E1%85%A2%E1%86%BA%E1%84%91%E1%85%A9%E1%86%B7.jpg",http://blog.naver.com/b-platform,새책방      
230,230,,비화림,종로구,종로구 창덕궁길 153 1층,37.58298867,126.9873972,,무료,0507-1362-0312,https://bookshopmap.s3.ap-northeast-2.amazonaws.com/venue/bihwarim_bookshop_cover.jpg,https://smartstore.naver.com/bihwarim_bookshop/,새책방      
231,231,,사가정문고,중랑구,중랑구 사가정로 398,37.58028764,127.0888166,,무료,02-493-9544,https://search.pstatic.net/common/?autoRotate=true&quality=100&type=f640_380&src=https%3A%2F%2Fldb-phinf.pstatic.net%2F20181011_217%2F1539219090592VzVkW_PNG%2FGx6rjELPqYvfQJtcNOFq8CVy.png,,새책방      
232,232,,사슴책방(성산점),마포구,마포구 성미산로13길 110,37.56576617,126.9162929,,무료,0507-1409-8092,"https://image.bookshopmap.com/600,fit,q60/venue/%E1%84%89%E1%85%A1%E1%84%89%E1%85%B3%E1%86%B7%E1%84%8E%E1%85%A2%E1%86%A8%E1%84%87%E1%85%A1%E1%86%BC%E1%84%89%E1%85%A5%E1%86%BC%E1%84%89%E1%85%A1%E1%86%AB%E1%84%8C%E1%85%A5%E1%86%B7-deer_bookshop_88276765_1081206802216730_5113518198000991290_n.jpg",https://www.deerbookshop.net,새책방      
233,233,,사유의 사유,도봉구,도봉구 방학로 3길 12,37.6621909,127.0407489,,무료,070-7799-0794,https://bookshopmap.s3.ap-northeast-2.amazonaws.com/venue/01_%E1%84%89%E1%85%A5%E1%84%8B%E1%85%AE%E1%86%AF_%E1%84%89%E1%85%A1%E1%84%8B%E1%85%B2%E1%84%8B%E1%85%B4%20%E1%84%89%E1%85%A1%E1%84%8B%E1%85%B2%28%E1%84%82%E1%85%A2%E1%84%87%E1%85%AE%29_1600.jpg,https://www.instagram.com/sayu_books/,새책방      
234,234,,사이에 in 공간인흑석,동작구,동작구 흑석로5길 94,37.50928639,126.9588126,,무료,02-325-6563,,https://blog.naver.com/saiebook,새책방      
235,235,,사진책방 고래,종로구,종로구 자하문로 106,37.58537668,126.9703564,,무료,02-720-7274,https://mblogthumb-phinf.pstatic.net/MjAxOTExMDdfMjc5/MDAxNTczMTE3ODE3MDgy.wwdKcsNBaTh-n_6cMR59fk9A5HAfKz2DSW7208cmVH8g.1nqwuxp_-nycikPW8Uxm0dNoJfH4TEFcjY61KyKbfZsg.JPEG.seoul_library/_S2A9340.jpg?type=w800,https://smartstore.naver.com/photobooks-gorae,새책방      
236,236,,사해책방 ,양천구,양천구 목동중앙북로 33-20,37.54864596,126.8682829,,무료,0507-1332-9208,"https://image.bookshopmap.com/600,fit,q60/venue/7f28ddebf1c2e9101db67d3f16a6d4f9da741a1af12718724b81d2ec1f1687a2_65598604.webp",https://blog.naver.com/kim_holiday,새책방      
237,237,,산책자,마포구,성지길 36 3층,37.5471544,126.9129891,,무료,070-8658-2141,"https://image.bookshopmap.com/600,fit,q60/venue/sanchaekja_179117427_149637887105075_2895019865015224272_n.jpg?ver=1622960938",https://blog.naver.com/wordnbow,새책방      
238,238,,살롱 도스또옙스끼,은평구,은평구 가좌로 317 2층,37.59580973,126.9097156,,무료,0507-1347-7412,https://cdn.epnews.net/news/photo/202008/20718_10805_5741.jpg,https://www.instagram.com/kdoeon,헌책방      
239,239,,살롱드북,관악구,관악구 남부순환로231길 11,37.48039477,126.9569792,,무료,070-4007-2466,https://mblogthumb-phinf.pstatic.net/MjAyMjA3MDRfMTMx/MDAxNjU2OTAyODcwNjAx.ooIOsaF_yaIPV4kFBI3myl6TYj6fhHsFoq4hjb7oMwUg.4n_LJKIn3gIlwSdwQzarevMdaGaPBB-G9ibyP7yWWrkg.PNG.seoul_library/%EC%82%B4%EB%A1%B1%EB%93%9C%EB%B6%81_%EC%86%8C%EA%B0%9C1.png?type=w800,https://blog.naver.com/salon_book,새책방      
240,240,,삼보서점문구,관악구,관악구 인헌9길 31,37.47280985,126.9685786,,무료,02-883-8598,https://search.pstatic.net/common/?autoRotate=true&quality=100&type=f640_380&src=https%3A%2F%2Fldb-phinf.pstatic.net%2F20170517_60%2F1494987739000cHHAS_JPEG%2F20170512_185036.jpg,,새책방      
241,241,,삼환서점,강동구,강동구 구천면로 427,37.55050639,127.1461468,,무료,02-3428-1582,,,새책방      
242,242,,상계문고,노원구,노원구 동일로 1361 상계주공2단지상가 지하1층,37.65006498,127.0612842,,무료,02-931-9453,,,새책방      
243,243,,상상아이서점,강서구,강서구 강서로48길 39 2층 ,37.5525607,126.8385922,,무료,02-3664-8034,,,새책방      
244,244,,상상하는 삐삐,중랑구,중랑구 중랑천로 117 정광빌딩,37.59570848,127.0720292,,무료,02-491-0516,https://www.localview.co.kr/cp/cpimage/901242265_2450665.jpg,http://blog.daum.net/kalman99/,새책방      
245,245,,상암누리문고,마포구,마포구 월드컵북로 396 누리꿈스퀘어 지하1층 1093호,37.57944191,126.8903226,,무료,0507-1313-2689,https://search.pstatic.net/common/?autoRotate=true&type=w560_sharpen&src=https%3A%2F%2Fldb-phinf.pstatic.net%2F20190228_8%2F15513481114774zLjB_JPEG%2F0K0y1fR-BFWTN1_Z80797fe_.jpeg.jpg,,새책방      
246,246,,상현서림,중랑구,중랑구 답십리로77길 39,37.5733742,127.081476,,무료,02-2275-5886,,https://www.instagram.com/sanghyunbookstore,헌책방      
247,247,,새고서림,영등포구,영등포구 영신로39길 8-1 201호,37.52169042,126.900341,,무료,0507-1441-2125,https://mblogthumb-phinf.pstatic.net/MjAyMzAxMDlfNTEg/MDAxNjczMjA5OTc3NjQ3.NtkaRxaOHZWdHucl--Ft-RRyJOAWKkByPeUdm9flYQ0g.e0evPrTfYM3Ek1wBu_ouSoDtg6THZaywOM8DzoKY8uQg.JPEG.a_cat_at_dawn/20221222%EF%BC%BF011142%EF%BC%BF0.jpg?type=w800,https://smartstore.naver.com/a_cat_at_dawn,새책방      
248,248,,새벽감성1집,양천구,양천구 월정로50길 16-8,37.54133887,126.8316923,,무료,0507-1365-1209,https://mblogthumb-phinf.pstatic.net/MjAyMjA3MThfMzAw/MDAxNjU4MTIxNDIxMDY5.6I2uaHWQFUGFa9vHJGghce4d8ovMWvbwWwHkFw6a_dIg.tko2zWbggh6s1y5Q4ztsbnrT-hdlbDYocWW3t37vUokg.PNG.seoul_library/%EC%84%9C%EC%9A%B8%ED%98%95%EC%B1%85%EB%B0%A9_%EC%84%9C%EC%A0%90%EC%86%8C%EA%B0%9C__%EC%83%88%EB%B2%BD%EA%B0%90%EC%84%B11%EC%A7%91efe_%EC%86%8C%EA%B0%9C1.png?type=w800,https://blog.naver.com/dawnsense,새책방      
249,249,,샘서림,강남구,개포로 218,37.47850244,127.046661,,무료,02-578-1041,,,새책방      
250,250,,생각의 주인,관악구,솔밭로7길 17,37.48027196,126.9633731,,무료,070-7604-7104,,https://blog.naver.com/maumhee,새책방      
251,251,,서문서점,중구,중구 청계천로 274 다87호,37.56942586,127.0080476,,무료,02-2274-6482,https://www.seoulbookbogo.kr/shop/img/store_person7.jpg,https://www.instagram.com/seomunbook,헌책방      
252,252,,서사 당신의 서재,용산구,용산구 대사관로 6길 5 파크랜드빌딩  6층,37.53411088,127.0003518,,무료,0507-1371-9948,"https://image.bookshopmap.com/600,fit,q60/venue/20230724/0cf78814707c346b80b9e69da75737d1be68aa55c5e8996c5bf2ed6267c1eb1b.jpg?ver=1690164044",https://seosa.co.kr,새책방      
253,253,,서울 셀렉션,종로구,종로구 삼청로 6,37.57649164,126.9798626,,무료,02-734-9565,https://cdn.imweb.me/upload/S202012252f70e8b0abd82/6e3bac6005999.png,https://www.seoulselection.com/bookstore/default/index.php,새책방      
254,254,,서울의 시간을 그리다,서대문구,서대문구 독립문로 31-6,37.56945215,126.9616107,,무료,070-4114-6711,https://cdn.imweb.me/thumbnail/20210901/a5ad8d145edc5.jpg,https://smartstore.naver.com/seoultimesketch/,새책방      
255,255,,서울책방,중구,"중구 세종대로 110, 지하 1층",37.56631742,126.9778292,,무료,02-739-7033,,http://store.seoul.go.kr,새책방      
256,256,,서울책보고,송파구,송파구 오금로 1,37.50712541,127.1189589,,무료,02-6951-4979,https://www.visitseoul.net/comm/getImage?srvcId=MEDIA&parentSn=24372&fileTy=MEDIA&fileNo=1,https://seoulbookbogo.kr,헌책방      
257,257,,서일서적,중랑구,중랑구 용마산로 86길 15,37.58634569,127.0961214,,무료,02-491-0443,https://search.pstatic.net/common/?autoRotate=true&quality=100&type=f640_380&src=https%3A%2F%2Fldb-phinf.pstatic.net%2F20200504_5%2F1588587731798XjwYq_JPEG%2F5cYLS7SRfDaQBufukknBR4P2.jpeg.jpg,,새책방      
258,258,,서적백화점,강남구,강남구 선릉로 325 지하1층,37.49859224,127.0515659,,무료,02-577-9876,https://www.seoulbookbogo.kr/front/img/2spic04_1.png,,새책방      
259,259,,서점 리스본,마포구,마포구 성미산로23길 60  1~3층,37.56610369,126.9200702,,무료,,https://bookshopmap.s3.ap-northeast-2.amazonaws.com/venue/139603378_1388015048215257_3390072569464590592_o.jpg?ver=1616984797,http://www.bookshoplisbon.com,새책방      
260,260,,서점 마므레,서대문구,서대문구 명지대길 10 2층,37.58079402,126.925122,,무료,0507-1339-8673,,https://www.instagram.com/mamrebooks,새책방      
261,261,,서점 정치발전소,마포구,마포구 독막로7길 8 2층,37.54825593,126.9187559,,무료,02-6384-3225,https://bookshopmap.s3.ap-northeast-2.amazonaws.com/venue/powerplantkr_177539985_125659906258920_3756951930658868356_n.jpg?ver=1620549675,https://www.powerplantkr.com,새책방      
262,262,,서점극장 라블레,마포구,마포구 백범로25길 5,37.54638507,126.9462977,,무료,02-6368-1578,https://search.pstatic.net/common/?autoRotate=true&quality=100&type=f640_380&src=https%3A%2F%2Fldb-phinf.pstatic.net%2F20210403_60%2F1617433973714GjH4e_JPEG%2FJQUZjST4en8TQY8W3gaZPppV.jpeg.jpg,https://rabelais.kr,새책방      
263,263,,서초서적문구,서초구,서초구 효령로 224,37.48329291,127.0085356,,무료,02-583-4389,,,새책방      
264,264,,서촌 그 책방,종로구,종로구 자하문로5가길 30-1,37.57875851,126.9703205,,무료,,"https://image.bookshopmap.com/600,fit,q60/venue/%EC%84%9C%EC%B4%8C%EA%B7%B8%EC%B1%85%EB%B0%A9.jpg",https://blog.naver.com/seochonbooks,새책방      
265,265,,서향관,중구,중구 을지로20길 32-3 203호,37.56498098,126.9951959,,무료,,https://mblogthumb-phinf.pstatic.net/MjAyMTA5MDRfMTUg/MDAxNjMwNzE5MTk3NTIz.6Hr0M8ErLAANFrpaALWmABWMc7TTvV0nwW3l5UDXA3Mg.yxe_ZVX6QX3cYF6BhnF9U4NQcNYIW1bDUsEYJ9HxdHog.JPEG.wlstjsdl852/SE-9991B2F6-CB0A-4C60-A09C-095D50688C90.jpg?type=w800,https://www.instagram.com/paperfragranceroom,새책방      
266,266,,석계문고,노원구,노원구 화랑로 349 지하1층,37.61537186,127.0666738,,무료,02-949-6148,https://mblogthumb-phinf.pstatic.net/20160314_251/sklee7777777_1457930749473Jva4i_JPEG/20160314_125630.jpg?type=w800,,새책방      
267,267,,선경문고,강남구,강남구 삼성로 311 제동빌딩,37.49964489,127.0601506,,무료,02-563-5111,https://search.pstatic.net/common/?autoRotate=true&quality=100&type=f640_380&src=https%3A%2F%2Fldb-phinf.pstatic.net%2F20150831_270%2F1440994684294nhGc1_JPEG%2F106470458872913_0.jpg,,새책방      
268,268,,선문고(선서적),금천구,금천구 독산로74길 6,37.46866206,126.9026334,,무료,02-869-4027,https://search.pstatic.net/common/?autoRotate=true&quality=95&type=f180_180&src=http%3A%2F%2Fcafefiles.naver.net%2FMjAyMTA4MDNfMjkx%2FMDAxNjI3OTU3ODY4NTcz.RBKNTo_SWWEBy5n74xOWunuu93r485yS9AcUY4NCZKAg.cy5dVyp6Nn8I7sfO78dnRZkK4I3IQkuhRT8cO1qmR9Qg.PNG%2Fimage.png%23739x713,,새책방      
269,269,,선영씨 책방,도봉구,도봉구 삼양로 534-6 2층,37.65077694,127.0135443,,무료,,,https://www.instagram.com/sunyoungs_bookshop,새책방      
270,270,,선유서가,영등포구,영등포구 양평로30가길 22,37.54278668,126.8907204,,무료,0507-1377-1711,https://mblogthumb-phinf.pstatic.net/MjAyMjA4MTZfMTgw/MDAxNjYwNjEwMTE3Mzg5.D1VVT0VAjrg1KfiUm4ItXpp1wtupSe2fOMoiJChduRkg.IKAVgfnVVMh6OPLEg_NWSiKHsa1UdKlLVjNZhhQLloUg.PNG.seoul_library/%EC%84%9C%EC%9A%B8%ED%98%95%EC%B1%85%EB%B0%A9_%EC%84%9C%EC%A0%90%EC%86%8C%EA%B0%9C__%EC%84%A0%EC%9C%A0%EC%84%9C%EA%B0%80_%EC%86%8C%EA%B0%9C1.png?type=w800,https://blog.naver.com/d-holic,새책방      
271,271,,성북동책방,성북구,성북구 동소문로13가길 36,37.59140788,127.0110889,,무료,,https://mblogthumb-phinf.pstatic.net/MjAyMTA4MDFfMTkx/MDAxNjI3ODEyNTcyNDI0.elxRVVZ8kmRS6uAUiiKszwtnp6okNPgJsCWS1Qxl5VMg.sDmw5V-J8ZR0W2SAqKjvxPPc3cTXvBHAwcGdI4T-zeIg.JPEG.obadiah43/20210801%EF%BC%BF104256.jpg?type=w800,https://blog.naver.com/obadiah43,새책방      
272,272,,세륜서점,송파구,송파구 오금로31길 13,37.5071717,127.1216332,,무료,02-415-2232,https://mblogthumb-phinf.pstatic.net/MjAyMTA3MTBfMTIw/MDAxNjI1OTIxNDI2ODk0.PKJuvSEYpk32bTi0CnItlZi7n66o1s0w_hkKdtPO_RYg.5yC0BiAPod8tbgqwYamwWuQbMKvqlOj6bgAeyb13qpkg.JPEG.poohjuria/output_1536688535.jpg?type=w800,,새책방      
273,273,,세신서점,송파구,송파구 양산로 14,37.49023952,127.1437991,,무료,02-402-4237,https://search.pstatic.net/common/?autoRotate=true&quality=100&type=f640_380&src=https%3A%2F%2Fldb-phinf.pstatic.net%2F20190527_55%2F1558909882107Bn8in_JPEG%2FbYS57IfbPDBaqsuRQnekjSMM.jpeg.jpg,,새책방      
274,274,,세화서점,서초구,신반포로 100  B09호,37.50308493,126.9956936,,무료,0507-1418-9334,https://search.pstatic.net/common/?autoRotate=true&quality=100&type=f640_380&src=https%3A%2F%2Fldb-phinf.pstatic.net%2F20211112_159%2F1636718175039oDfV5_JPEG%2F20211112_174913.jpg,,새책방      
275,275,,세화영어서점,성북구,성북구 삼양로 15-2,37.60466914,127.0246461,,무료,,"https://image.bookshopmap.com/600,fit,q60/venue/1_bbdca29f.jpg?ver=1616312068",https://www.facebook.com/sehwa.eb,새책방      
276,276,,소나기 그림책방,서대문구,서대문구 독립문로 32 2층,37.56928427,126.9612723,,무료,0507-1357-7454,,https://blog.naver.com/sonagibooks,새책방      
277,277,,소리북스,성북구,성북구 성북로13길2 2층,37.59274943,127.0016836,,무료,02-736-9701,,http://www.soribooks.com,새책방      
278,278,,소수책방,중구,중구 다산로20길 26 2층,37.55681312,127.0135208,,무료,0507-1303-2439,"https://image.bookshopmap.com/600,fit,q60/venue/05.jpeg?ver=1631437205",https://smartstore.naver.com/sosoobook/,새책방      
279,279,,소요서가,중구,"중구 청계천로 160 청계세운상가 바열 309, 310호",37.56797986,126.9953651,,무료,02-2272-1517,"https://image.bookshopmap.com/600,fit,q60/venue/%E1%84%89%E1%85%A5%E1%84%8C%E1%85%A5%E1%86%B7%E1%84%8C%E1%85%A5%E1%86%AB%E1%84%80%E1%85%A7%E1%86%BC_00705f78.png?ver=1636957349",https://soyoseoga.com,새책방      
280,280,,소원책담,종로구,종로구 혜화로 6길 17,37.58756324,127.0007693,,무료,0507-1485-8829,"https://image.bookshopmap.com/960,fit,q60/venue/swbookstory_199482174_799723280684100_8525998044476960205_n.jpg?ver=1624169950",https://swbookstory.tistory.com/,새책방      
281,281,,송파문고,송파구,송파구 송파대로37길 70 지하1층,37.49965476,127.1046404,,무료,02-416-4837,https://mblogthumb-phinf.pstatic.net/MjAyMjA3MjBfMTcg/MDAxNjU4MzAyNzQyMDAz.Rk6Fm4nrUOQULb-DmVmccf2NaViaYj5CeBiAVY6YyuIg.G1X_y5dyGiKXPc3ZYC8l9uKv9laB-SOD9VT9EWA7qJ4g.PNG.seoul_library/%EC%84%9C%EC%9A%B8%ED%98%95%EC%B1%85%EB%B0%A9_%EC%84%9C%EC%A0%90%EC%86%8C%EA%B0%9C__%EC%86%A1%ED%8C%8C%EB%AC%B8%EA%B3%A0_%EC%B5%9C%EC%A2%85_%EC%86%8C%EA%B0%9C2.png?type=w800,,새책방      
282,282,,송파서적,송파구,송파구 송파대로32길 8 1층,37.49681342,127.117596,,무료,02-402-4770,,,헌책방      
283,283,,수도서림,광진구,광진구 용마산로22길 9,37.56369692,127.0875821,,무료,02-454-1062,https://search.pstatic.net/common/?autoRotate=true&quality=100&type=f640_380&src=https%3A%2F%2Fldb-phinf.pstatic.net%2F20190126_101%2F1548488451368u4lwT_JPEG%2F4KnFUFNlErQ9vOumdVF_RP95.jpg,,새책방      
284,284,,수수책방,마포구,토정로 8-7,37.54538549,126.9118045,,무료,0507-1341-3625,https://mblogthumb-phinf.pstatic.net/MjAyMjAzMjhfMjU1/MDAxNjQ4NDU4MzE1NTM3.1S5cA4-iaQf8kwO9Nx09rpUIQoVQpZxhvMfp151wPFsg.VhBKRNdcRPqCg9DiVyzXiN8fQYRIiPTfdTcRzKYEED8g.JPEG.ps0225/KakaoTalk_Photo_2022-03-28-18-00-49_014.jpeg?type=w800,https://www.instagram.com/susu_books,새책방      
285,285,,수수한 책방,강북구,솔매로50길 81,37.6228734,127.028405,,무료,0507-1376-6994,https://bookshopmap.s3.ap-northeast-2.amazonaws.com/venue/%E1%84%83%E1%85%A1%E1%84%8B%E1%85%AE%E1%86%AB%E1%84%85%E1%85%A9%E1%84%83%E1%85%B3.jpeg?ver=1636262990,https://blog.naver.com/kitm123,새책방      
286,286,,숙명도서,용산구,용산구 청파로47길 88,37.54514394,126.965943,,무료,02-717-9139,,,새책방      
287,287,,순정책방,강동구,강동구 동남로65길 15-5,37.54747901,127.1550007,,무료,070-4062-8202,https://bookshopmap.s3.ap-northeast-2.amazonaws.com/venue/%E1%84%89%E1%85%AE%E1%86%AB%E1%84%8C%E1%85%A5%E1%86%BC%E1%84%8E%E1%85%A2%E1%86%A8%E1%84%87%E1%85%A1%E1%86%BC-%E1%84%8B%E1%85%AC%E1%84%87%E1%85%AE.jpg,http://blog.naver.com/soonjung_book,새책방      
288,288,,순화동천,중구,서소문로9길 28,37.56361936,126.9703136,,무료,02-772-9001,,http://blog.naver.com/sunhwadongcheon ,새책방      
289,289,,숨어있는 책,마포구,마포구 신촌로12길 30 지하,37.55503325,126.9325099,,무료,02-333-1041,https://www.seoulbookbogo.kr/front/img/2spic06_1.png,https://www.instagram.com/hiddenbook_sinchon,헌책방      
290,290,,숭실서적,은평구,은평구 은평터널로7길 17-2 ,37.59231015,126.9044129,,무료,02-374-8917,,,새책방      
291,291,,스쿨서점,동작구,동작구 대방동길 71,37.50445617,126.9251902,,무료,02-816-4498,,http://www.facebook.com/sbook4498,새책방      
292,292,,스타더스트,종로구,종로구 새문안로5길 5-7 3층,37.57069897,126.9747221,,무료,,https://bookshopmap.s3.ap-northeast-2.amazonaws.com/venue/stardust-cover_1600.JPG,https://blog.naver.com/stardustbookcafe https://smartstore.naver.com/stardustbookcafe,새책방      
293,293,,스토리지북앤필름,용산구,용산구 신흥로 115-1,37.54474562,126.9831368,,무료,070-5103-9975,https://media.timeout.com/images/102287533/image.jpg,http://www.storagebookandfilm.com,새책방      
294,294,,스토리지북앤필름(로터리점),용산구,용산구 신흥로36길 5,37.54650528,126.981948,,무료,,"https://image.bookshopmap.com/600,fit,q60/venue/20230614/c96596190a96c6af8976d08c849bbb83a81301cfa63acc9004212432596bcc3d.jpeg?ver=1686719860",http://www.storagebookandfilm.com,새책방      
295,295,,스토리지북앤필름(후암점),용산구,용산구 두텁바위로 94-1,37.54741549,126.9820979,,무료,0507-1491-9979,https://dw82ptradz9jo.cloudfront.net/daylog/63355ef152ad6f437df3a5ed/ae737e20-6ab8-486d-97ab-ab4de143dee5,http://www.storagebookandfilm.com,새책방      
296,296,,스토리텔링,성동구,성동구 서울숲4길 13,37.54756905,127.0424499,,무료,02-465-1078,,https://www.instagram.com/ck_storytelling,새책방      
297,297,,스페인책방,중구,중구 퇴계로 36길 29 기남빌딩 5층 603호,37.56054635,126.9950575,,무료,0507-1311-7694,,https://www.spainbookshop.com,새책방      
298,298,,스프링 플레어,마포구,마포구 동교로27길 53,37.56013049,126.9209422,,무료,070-7167-1846,https://mblogthumb-phinf.pstatic.net/MjAxOTExMDdfMTM4/MDAxNTczMTE4MjMxNzM2.N47ll4jGbuZJIqHHVdJ4iZBD-wRvYiYLSi1hUh9Y1ysg.JHig6yOxe5nBRf5C-LtCbeiwssr7HdRKwugeM1PxwOMg.JPEG.seoul_library/_61A9959.jpg?type=w800,https://www.instagram.com/springflare.kr,새책방      
299,299,,스프링한국어서점,마포구,마포구 양화로 193,37.55884094,126.9258762,,무료,0507-1384-8363,,http://www.springkorean.com,새책방      
300,300,,시시소소,마포구,도화2길 27 도화아파트먼트 마포 3층,37.5395405,126.9494904,,무료,0507-1494-5590,,https://www.sisi-soso.com,새책방      
301,301,,시인서점,양천구,양천구 오목로 41,37.52219667,126.8422007,,무료,02-2601-4798,https://bookshopmap.s3.ap-northeast-2.amazonaws.com/venue/20230806/44469d853f31b155f952e75d9cce29b71538445d6865e5337814cafa47fe48d2.jpeg?ver=1691311357,,새책방      
302,302,,시절인연,성북구,성북구 보국문로16가길 43-20,37.61268385,127.0113192,,무료,0507-1362-9079,https://mblogthumb-phinf.pstatic.net/MjAyMTA3MDdfOTMg/MDAxNjI1NjI2ODk4MzI1.S5CxzJim8ezW6cf-ZcbNS68vKcmzpFa8mV0RUw2IXbcg.36_OD_tkPBYdZK2gEkW4ejveZKZ2UXbo0PLvyISPJoIg.JPEG.billage_book/KakaoTalk_20210429_214959452_09.jpg?type=w800,https://smartstore.naver.com/_sesonbooks,새책방      
303,303,,신고서점,도봉구,도봉구 삼양로144길 21,37.65175543,127.0141334,,무료,02-960-6423,https://mblogthumb-phinf.pstatic.net/MjAyMjA0MTJfMTk2/MDAxNjQ5NzQ5NTYyMzQ3.6720o9lcE-xMm8N52pUgXmxlZZfJHiMpX4gWWwlVt8Ug.IB6dL6m1P7lLMdivCetnwkBBX7iG1qQa0P6Pdg8jFfkg.JPEG.stellar2020/SE-7b0fdade-ba1c-11ec-ad51-5bd47414ee9b.jpg?type=w800,http://singoro.com,헌책방      
304,304,,신공손서점,중랑구,중랑구 봉화산로 194 신내동 신아타운 지하 1층,37.60645263,127.094707,,무료,02-3421-1662,https://mblogthumb-phinf.pstatic.net/MjAyMzA1MjFfMyAg/MDAxNjg0NjU2MTgzMzE4.gu-eurx74awC1OCPkOgVvfyWNj67x6ZUqk_UXiNF4rQg.zr2kHbyyRo6M7zqFGL_afARQrfQPZptYH1hu4KETIW0g.JPEG.jiwon844512/IMG_6500.jpg?type=w800,,새책방      
305,305,,신동아문고,영등포구,영등포구 영등포로 382-1,37.513501,126.9205137,,무료,02-836-1608,https://search.pstatic.net/common/?autoRotate=true&quality=100&type=f640_380&src=https%3A%2F%2Fldb-phinf.pstatic.net%2F20200106_72%2F15783061042666rk2S_JPEG%2FGdQvGjwpkghQUfFC91r2Q8xS.jpeg.jpg,,새책방      
306,306,,신명문고,도봉구,도봉구 도봉로 705 지하1층,37.66744295,127.0428854,,무료,02-955-9088,,,새책방      
307,307,,신목서점,양천구,양천구 목동동로 130,37.514999,126.8712369,,무료,02-2647-7216,https://search.pstatic.net/common/?autoRotate=true&quality=100&type=f640_380&src=https%3A%2F%2Fldb-phinf.pstatic.net%2F20200307_185%2F1583579811780zv8aH_JPEG%2FrTnPzw4c-lSvCJO0xsaNR8Gl.jpg,,새책방      
308,308,,신성서림,종로구,종로구 종로 258 대학천상가(덕성빌딩),37.5706569,127.0064795,,무료,02-2265-9579,,,새책방      
309,309,,신일서점,강북구,강북구 덕릉로 45,37.63464706,127.0188555,,무료,02-908-9552,,,헌책방      
310,310,,신협서점,종로구,종로구 종로 258,37.5706569,127.0064795,,무료,02-2266-2718,https://t1.daumcdn.net/blogfile/fs6/18_blog_2007_07_04_12_16_468b11294494c?x-content-disposition=inline,,새책방      
311,311,,심지전문서적,강남구,강남구 논현로 723 창성빌딩 1층,37.51660565,127.0292593,,무료,02-543-3476,https://d35156dk3hq0x4.cloudfront.net/uploads/product/thum_cpy_222_prd_358_18b940198f1a4f09e4998dc93e5f8e05.jpg,http://www.simjibook.com,새책방      
312,312,,쌈북서점,양천구,양천구 목동서로 277 대림아크로텔 108호,37.52245427,126.8694393,,무료,02-2643-9319 ,,,새책방      
313,313,,쌍문문고,도봉구,도봉구 도봉로 482 우성빌딩 지하1층,37.64846313,127.0350076,,무료,02-996-0559,,,새책방      
314,314,,쎄임더스트,성동구,성동구 성수일로 44-1 2층,37.54433654,127.0498222,,무료,070-7954-1217,"https://image.bookshopmap.com/600,fit,q60/venue/unknown_300565492_744189593355597_4856297793106823687_n.jpg?ver=1661062243",http://www.samedust.org,새책방      
315,315,,쏘피아 서점,서대문구,서대문구 충정로 53 13층,37.56375123,126.9646327,,무료,02-362-2036,https://t1.daumcdn.net/cfile/tistory/99939C405D09FB3615,,새책방      
316,316,,쓸모의 발견,도봉구,도봉구 우이천로42길 37 ,37.65441743,127.018406,,무료,,https://magazine.brique.co/wp-content/uploads/2020/02/4ebab1bd-%EB%B9%84%EC%9C%A0%EC%97%90%EC%8A%A4-%EA%B1%B4%EC%B6%95_%EC%93%B8%EB%AA%A8%EC%9D%98-%EB%B0%9C%EA%B2%AC12.jpg,https://www.instagram.com/sslmo_balgyeon,새책방      
317,317,,아운트,강동구,강동구 양재대로 126길 54 101호,37.54334035,127.1453044,,무료,0507-1351-3130,,https://blog.naver.com/aund_,새책방      
318,318,,아인서점,마포구,마포구 월드컵로3길 31-30 3층,37.54991741,126.9109455,,무료,070-8667-0033,https://bookshopmap.s3.ap-northeast-2.amazonaws.com/venue/ain.books_72211785_1792503884381684_3988670635913699786_n.jpg,http://ainbooks.kr/,새책방      
319,319,,아직 독립 못 한 책방,마포구,마포대로 190 푸른약국 내,37.55091751,126.9557907,,무료,,"https://image.bookshopmap.com/600,fit,q60/venue/a_dok_bang_240075635_2997353880532927_439304334528556080_n.jpg?ver=1635910318",https://www.instagram.com/a_dok_bang,새책방      
320,320,,아침달 북스토어,마포구,마포구 성미산로 153-16 2층,37.56510695,126.9231097,,무료,02-3446-5238 ,https://bookshopmap.s3.ap-northeast-2.amazonaws.com/venue/achimdal.books.jpg,https://blog.naver.com/achimdalbooks,새책방      
321,321,,아크앤북(이마트 더타운몰 월계점),노원구,노원구 마들로3길 15 이마트 월계점 2층,37.62650936,127.0619798,,무료,070-4281-2617,https://mblogthumb-phinf.pstatic.net/MjAyMDEwMzBfMjQz/MDAxNjA0MDY2NjUzMjI1.Tyh_aZTTK478H1_3LhT31NWE6AmkDfrVwctreRHdj48g.6HPGv2PnE0ayHQnGG782HvLN0WZssJh3USOCmS8M0CMg.JPEG.sophia418/20201030%EF%BC%BF121048.jpg?type=w800,,새책방      
322,322,,아크앤북(이태원점),용산구,용산구 장문로 23 지하 1층,37.52856556,126.9931075,,무료,0507-1354-2787,https://blog.kakaocdn.net/dn/b9bX8z/btqReRkXmuf/LYlSDv6skgkomkBbHCW6T0/img.jpg,,새책방      
323,323,,아크앤북(잠실 롯데월드몰점),송파구,송파구 올림픽로 300 롯데월드몰 4층,37.51375196,127.1044469,,무료,02-3213-4490,https://mblogthumb-phinf.pstatic.net/MjAyMjA5MTFfMjM1/MDAxNjYyODM2NzU0NTIx.fPW1fDMpP2qzrtvhnankrdVzuVJwtJwLXu01lpS_-3Yg.YYmVi6Bwn-bm6CFDeMIeYiC5ocd1xisowW65TNuTwaEg.JPEG.travel_haji/%EC%95%84%ED%81%AC%EC%95%A4%EB%B6%81_%EC%8D%B8%EB%84%A4%EC%9D%BC.jpg?type=w800,,새책방      
324,324,,아크앤북(현대 신촌점),서대문구,서대문구 연세로 13 현대백화점 유플렉스 12층,37.55673784,126.9365597,,무료,0507-1349-1702,"https://image.bookshopmap.com/960,fit,q60/venue/arcnbook-sinchon.jpeg?",,새책방      
325,325,,악어책방,강서구,강서구 강서로45다길 30-27 초록아파트 단지내 상가동 102호,37.54528183,126.8329703,,무료,0507-1314-3017,"https://image.bookshopmap.com/600,fit,q60/venue/akoebook_58698706_1402205953252284_3348509336037627678_n.jpg",https://www.instagram.com/akoebook,새책방      
326,326,,안도북스,마포구,마포구 월드컵북로6길 87 2층 201호,37.56028501,126.9225799,,무료,,,http://blog.naver.com/ando78,새책방      
327,327,,알라딘 중고매장(가로수길점),강남구,강남구 강남대로 152길45,37.51839445,127.0229862,,무료,1544-2514,https://mblogthumb-phinf.pstatic.net/MjAxODExMDVfMjE5/MDAxNTQxNDE0NzUxODc2.sljyben7s-bsji4Ldr5Q3I2eJ6yDKXsPrjooeu5dQI8g.bbuvOa0uhw9uO1uz0VtiO_KalFyrHGJTBM7XBo6HVhMg.JPEG.digitalhippy/image_9233652921541414706346.jpg?type=w800,,헌책방      
328,328,,알라딘 중고매장(강남점),강남구,강남구 강남대로 438 지하 1층,37.50164281,127.0263361,,무료,1544-2514,https://image.aladin.co.kr/Community/paper/2012/0802/pimg_716550157778982.jpg,,헌책방      
329,329,,알라딘 중고매장(강서홈플러스점),강서구,강서구 화곡로 398 홈플러스강서점 4층,37.55846996,126.854819,,무료,1544-2514,https://image.aladin.co.kr/Community/paper/2018/0427/pimg_7165501571894719.jpg,,헌책방      
330,330,,알라딘 중고매장(건대점),광진구,광진구 능동로 111 지하 1층,37.54106291,127.0708594,,무료,1544-2514,https://mblogthumb-phinf.pstatic.net/MjAyMTAyMTVfMTI0/MDAxNjEzMzcwNTMxODI1.dfPxljjdbk1jXdtRul1TtpmQElzm7O2isDAWPKKrYMcg.NQlUX81hrvzgx9SNo_OLqOMyyRikJyYomdPWi1WdfT8g.JPEG.fancy_dress/SE-30a2df68-6f4c-11eb-a19f-791988476c84.jpg?type=w800,,헌책방      
331,331,,알라딘 중고매장(노원역점),노원구,노원구 동일로 1413 남성빌딩 지하 1층,37.65476885,127.0600193,,무료,1544-2514,https://image.aladin.co.kr/Community/paper/2018/0704/pimg_7165501571946821.jpg,,헌책방      
332,332,,알라딘 중고매장(대학로점),종로구,종로구 창경궁로 236 이화빌딩 지하 1층,37.58264363,126.9988342,,무료,1544-2514,https://mblogthumb-phinf.pstatic.net/MjAxNzAzMjVfMTIx/MDAxNDkwMzgxODk3NjA3.GxweoPkhWUKU4kFvm0xYa8R9Qpd1eyZYHBKVjgz5I-8g.z-p9h4gKKOeoTKBHzj7B_GyR9GVyLVvOcsOPevNJ3r8g.PNG.redmoon01/%EC%A0%9C%EB%AA%A9_%EC%97%860%EC%9D%8C.png?type=w420,,헌책방      
333,333,,알라딘 중고매장(서울대입구역점),관악구,관악구 관악로 171 지하 1층,37.48055351,126.9522333,,무료,1544-2514,https://mblogthumb-phinf.pstatic.net/MjAyMjA4MTBfMTQ4/MDAxNjYwMTMyMzUwNTU4.59zfqMIQler5zltXQVmJAryU2wl0AJPYMiSS9SuWSb0g.l3NIJOccuI3TA-R6FxEalVMlsnu_FDVfIgp3suHdT4Qg.JPEG.einiaini/image540961726590407867920220810%EF%BC%BF142155.jpg?type=w800,,헌책방      
334,334,,알라딘 중고매장(수유점),강북구,강북구 도봉로 342 2층,37.63803455,127.0261287,,무료,1544-2514,https://search.pstatic.net/common/?autoRotate=true&quality=100&type=f640_380&src=https%3A%2F%2Fldb-phinf.pstatic.net%2F20220304_120%2F1646399285323mmIms_JPEG%2Faladin_suyu.jpeg,,헌책방      
335,335,,알라딘 중고매장(신림점),관악구,관악구 신림로 318 청암위브 지하 1층,37.48257543,126.9302529,,무료,1544-2514,https://t1.daumcdn.net/cfile/tistory/03723933519DEB591B,,헌책방      
336,336,,알라딘 중고매장(신촌점),서대문구,서대문구 연세로 21 지하 1층,37.55757241,126.9366783,,무료,1544-2514,https://mblogthumb-phinf.pstatic.net/MjAyMDA4MTBfMTE0/MDAxNTk3MDI4MzMzNzgz.DUzpUf7GgojP-sXJS-_i7LAkAneQEAOruMOlE1qWSW4g.3L71RRgJPh1hoH9B_wXqkZo7Dcf2AeAhIw6ieB6oQlsg.JPEG.keai1016/SE-e887f1a1-7ad9-4718-803b-e30290b88089.jpg?type=w800,,헌책방      
337,337,,알라딘 중고매장(연신내점),은평구,은평구 연서로 214,37.6174451,126.9199521,,무료,1544-2514,,,헌책방      
338,338,,알라딘 중고매장(영등포점),영등포구,영등포구 영중로 12 에쉐르 빌딩 지하 2층,37.51761761,126.906507,,무료,1544-2514,,,헌책방      
339,339,,알라딘 중고매장(이수역점),동작구,동작구 사당로 310 지하 1층,37.48501514,126.9810218,,무료,1544-2514,https://image.aladin.co.kr/Community/paper/2019/0430/pimg_7738702552185341.jpg,,헌책방      
340,340,,알라딘 중고매장(잠실롯데월드타워점),송파구,송파구 올림픽로 305 지하 1층,37.51497717,127.1042164,,무료,1544-2514,https://image.aladin.co.kr/Community/paper/2022/1219/pimg_7738702553673654.jpg,,헌책방      
341,341,,알라딘 중고매장(잠실새내역점),송파구,송파구 올림픽로 124 지하 1층,37.51139373,127.084435,,무료,1544-2514,https://mblogthumb-phinf.pstatic.net/MjAyMjAxMjlfMjIy/MDAxNjQzNDE4NTYwMzY0.wPZO2iBmzy-l8w-f6qmfOUsUCoE3FszpCfvqRYCZOKkg.o3qCHzN5vMbEQ4heA4ed9eXPvqz9BDUqsKRHWSYkyXQg.JPEG.je505050/KakaoTalk_20220129_094842270.jpg?type=w800,,헌책방      
342,342,,알라딘 중고매장(종로점),종로구,종로구 삼일대로 395 지하 1층,37.56990362,126.9873599,,무료,1544-2514,https://image.aladin.co.kr/Community/paper/2011/0916/pimg_716550157697081.jpg,,헌책방      
343,343,,알라딘 중고매장(합정점),마포구,마포구 독막로 5 지하 1층,37.54901989,126.9143079,,무료,1544-2514,https://mblogthumb-phinf.pstatic.net/MjAyMjA4MDJfMjkw/MDAxNjU5NDE0MjQyNjY5.fd_jmWh1y8YXhuT4ld9F_IX961t3Xu5GVn6o84rgVVMg.4H3JJfUT8aE4RVtSsi-rq2VFAyFfgFe-onuMWkiGrGcg.JPEG.nothingbutghosts_/SE-FD185093-358E-4CA4-9060-91B45B5DDA0D.jpg?type=w800,,헌책방      
344,344,,알지문구서점,강동구,강동구 고덕로 87 2층,37.55491243,127.1349605,,무료,02-481-2143,https://search.pstatic.net/common/?autoRotate=true&quality=100&type=f640_380&src=https%3A%2F%2Fldb-phinf.pstatic.net%2F20200426_9%2F1587884574055UDpz7_JPEG%2FOeW0Zk8GYH5stBZYvBV8sKWv.jpeg.jpg,,새책방      
345,345,,알키미스타,은평구,은평구 응암로9길 24,37.58785313,126.9138939,,무료,02-6104-5803,https://img1.daumcdn.net/thumb/R800x0/?scode=mtistory2&fname=https%3A%2F%2Fblog.kakaocdn.net%2Fdn%2FbdqSG2%2Fbtq64wGmsq9%2FTBJuByvUxJ78o3zmVFEkP0%2Fimg.jpg,https://smartstore.naver.com/alquimistar,새책방      
346,346,,얄라북스,중구,"중구 을지로 114-6, 606호",37.56583385,126.990609,,무료,02-2274-3331,,https://studioyalla.com/,새책방      
347,347,,양곡서림,성동구,성동구 난계로 114-31 302호,37.56123125,127.0259523,,무료,02-722-9641,,,새책방      
348,348,,양지서점,성동구,성동구 금호로 173 신금호파크자이상가동 24호,37.55628641,127.018153,,무료,02-2234-2693,https://search.pstatic.net/common/?autoRotate=true&quality=100&type=f640_380&src=https%3A%2F%2Fldb-phinf.pstatic.net%2F20230406_298%2F1680731316086R7rwv_JPEG%2F20230404_073532.jpg,,새책방      
349,349,,양지서점,관악구,관악구 인헌6길 24,37.47413123,126.9655067,,무료,02-884-5495,https://search.pstatic.net/common/?autoRotate=true&quality=100&type=f640_380&src=https%3A%2F%2Fldb-phinf.pstatic.net%2F20230406_298%2F1680731316086R7rwv_JPEG%2F20230404_073532.jpg,,새책방      
350,350,,양현책세상,동작구,동작구 노량진로14길 9,37.51301288,126.942128,,무료,02-812-9070,,http://www.y-book.com/,새책방      
351,351,,어나더더블유,동작구,동작구 사당로30길 42,37.48308966,126.9808342,,무료,,https://cdn.belocal.kr/news/photo/201911/322596_643.jpg,https://blog.naver.com/shkb85,새책방      
352,352,,어쩌다 산책,종로구,종로구 동숭길 101 지하 1층,37.58246148,127.00402,,무료,02-747-7147,"https://image.bookshopmap.com/600,fit,q60/venue/uhjjuhdah_promenade-01.jpg",https://www.instagram.com/ujd.promenade,새책방      
353,353,,어쩌다책방,마포구,마포구 월드컵로 19길 74,37.5543449,126.9069541,,무료,070-5121-5629,https://bookshopmap.s3.ap-northeast-2.amazonaws.com/venue/Uhjjuhdahbookshop-cover-md.jpg,https://www.facebook.com/uhjjuhdah.bookshop,새책방      
354,354,,에덴서점,양천구,양천구 오목로 203,37.52570079,126.8599537,,무료,02-2605-8598,https://img1.daumcdn.net/thumb/R800x0/?scode=mtistory2&fname=https%3A%2F%2Ft1.daumcdn.net%2Fcfile%2Ftistory%2F99C505335B0A49DD24,,새책방      
355,355,,에이포서점,동작구,만양로8길 68 지하1층,37.51045271,126.9458057,,무료,02-821-0158,https://search.pstatic.net/common/?autoRotate=true&quality=100&type=f640_380&src=https%3A%2F%2Fldb-phinf.pstatic.net%2F20190705_32%2F1562325949362ShpCJ_JPEG%2FfGkIijekHBpffW3cqfca2K9G.jpg,http://www.a4book.net,새책방      
356,356,,엘지트윈문고(선덕점),도봉구,도봉구 시루봉로 57 ,37.65593119,127.0275217,,무료,02-999-2117,,,새책방      
357,357,,엘지트윈문고(쌍문점),도봉구,도봉구 도당로 6,37.65871187,127.0353712,,무료,02-996-8324,,,새책방      
358,358,,엠프티폴더스,관악구,관악구 행운1길 70 1호,37.48173865,126.9565479,,무료,0507-1302-4257,https://mblogthumb-phinf.pstatic.net/MjAyMTA1MDVfMTcz/MDAxNjIwMTQ5NjY4OTg1.vGFfCkqtkLlHwJxM5rxENOImL2vsfkz2UGR6b1BE0ysg.uDB3eS8-VEcr0-9q0W3PTklpCPXwbomf4nUH3SeqYTsg.JPEG.billage_book/IMG_8350.JPG?type=w800,https://www.instagram.com/emptyfolders,새책방      
359,359,,여기서울 149쪽,중구,중구 서소문로6길 33,37.55967957,126.9672604,,무료,0507-1456-0192,https://img.khan.co.kr/news/2021/04/21/l_2021042101002425100204201.jpg,https://www.instagram.com/here.149p/,새책방      
360,360,,여행마을,마포구,월드컵로17길 57 지하1층,37.55486135,126.907757,,무료,0507-1495-8067,,https://smartstore.naver.com/traveltown_book,새책방      
361,361,,역사책방,종로구,종로구 자하문로10길 24,37.57927999,126.9728467,,무료,02-733-8348,"https://image.bookshopmap.com/960,fit,q60/venue/01_%E1%84%89%E1%85%A5%E1%84%8B%E1%85%AE%E1%86%AF_%E1%84%8B%E1%85%A7%E1%86%A8%E1%84%89%E1%85%A1%E1%84%8E%E1%85%A2%E1%86%A8%E1%84%87%E1%85%A1%E1%86%BC6.jpg?ver=1614236055",https://historybook.kr,새책방      
362,362,,연도서,관악구,관악구 남부순환로 1395 성우빌딩,37.48049394,126.9057465,,무료,02-868-2466,,http://www.yeonvideo.co.kr,헌책방      
363,363,,연신내문고,은평구,은평구 통일로 861 범일빌딩 지하 1층,37.61978504,126.9201939,,무료,02-352-7600,"https://image.bookshopmap.com/600,fit,q60/venue/20221026/ecae6fa90fc7e0692d8cbe11371c578802e0a1aa6f311449676577dab4f27f13.jpeg?ver=1666754141",http://www.ysnbook.com/,새책방      
364,364,,연희서점,서초구,서초구 서초중앙로24길 43 유원아파트 상가 113호,37.49594752,127.0189851,,무료,02-595-9773,https://search.pstatic.net/common/?autoRotate=true&quality=100&type=f640_380&src=https%3A%2F%2Fldb-phinf.pstatic.net%2F20190131_143%2F1548916377729Eeyt7_JPEG%2FUG7MNwy_uNKmgrKy5zau32MO.jpg,,새책방      
365,365,,열린문고,중랑구,중랑구 공릉로2가길 6,37.61244926,127.078762,,무료,02-977-9313,,https://www.instagram.com/mookdong_openbook/,새책방      
366,366,,열린문고,구로구,구로구 경인로47다길 4,37.50342595,126.863985,,무료,02-2619-9724,,,새책방      
367,367,,열린책방,강서구,강서구 등촌로35길 160 지하 1층,37.53593436,126.8625633,,무료,02-2653-7122,https://www.seoulbookbogo.kr/front/img/2spic10_1.png,,헌책방      
368,368,,영광서점,종로구,종로구 종로58길 18,37.57269831,127.0176756,,무료,02-2252-6063,https://search.pstatic.net/common/?autoRotate=true&quality=95&type=f180_180&src=http%3A%2F%2Fblogfiles.naver.net%2F20110301_149%2Fparty_nole_1298972664444PzlcI_JPEG%2FIMG_3126.JPG%23400x588,,헌책방      
369,369,,영일서점,강서구,강서구 등촌로 39길 7,37.54548307,126.8618004,,무료,02-2651-1893,https://search.pstatic.net/common/?autoRotate=true&quality=100&type=f640_380&src=https%3A%2F%2Fldb-phinf.pstatic.net%2F20191106_23%2F1573018681377hVBLj_JPEG%2FBe_NbdolvQutgUk7VWbsD0pJ.jpg,,새책방      
370,370,,영파문고,송파구,송파구 올림픽로575 풍납동우체국,37.53334505,127.1211601,,무료,02-474-3700,https://search.pstatic.net/common/?autoRotate=true&quality=100&type=f640_380&src=https%3A%2F%2Fldb-phinf.pstatic.net%2F20200802_45%2F1596378628003olb65_JPEG%2FNf1Oriy70tuNyPs1gJ2kcQkF.jpeg.jpg,,새책방      
371,371,,영풍문고(가산마리오점),금천구,금천구 벚꽃로 266 마리오아울렛 3관 6층,37.47844577,126.8850808,,무료,02-2067-3820,https://mblogthumb-phinf.pstatic.net/MjAyMjA5MDNfMjAw/MDAxNjYyMTg3ODgyMjI0.8b8iAmgF9-pirWcheTw2MieKSRaO78M_mc8p8_jh0Ewg.im6vuyD7Cfb6wLjI9o8xSMXU_Qa1nRDTsPxA_trLhTMg.JPEG.mu_do/1.jpg?type=w800,,새책방      
372,372,,영풍문고(강남역점),강남구,강남구 강남대로 408 YBM어학센터 2층,37.49921703,127.027537,,무료,02-569-9070,https://mblogthumb-phinf.pstatic.net/MjAyMTAxMjVfMjMy/MDAxNjExNTg0OTMxNTAx.BlkZH6vcf8vPJaCDMUhDHsCVKw__B1H7SQmx4OXnuJgg.AS9YGQyHYU4cIFcN-hWGBH4drqJ6VxdDpUEfcWbTnDwg.JPEG.thedooroomi/IMG_6877.jpg?type=w800,,새책방      
373,373,,영풍문고(강남포스코점),강남구,강남구 테헤란로 440 포스코센터 지하 1층,37.50581497,127.056131,,무료,02-3452-3112,https://img.ypbooks.co.kr/ypbooks/images/company/posco_img01.jpg,,새책방      
374,374,,영풍문고(김포공항롯데점),강서구,강서구 하늘길38 롯데몰 김포공항 스카이파크 GF층,37.57136985,126.8029604,,무료,02-6116-5541,https://mblogthumb-phinf.pstatic.net/MjAyMDA4MDdfMTk1/MDAxNTk2NzgyMjY0OTU3.M-qOuFRBG8y8lKPSNlNYL1wVsigmFKmZ39wXjCCRemkg.2X1HFbkBOz0EnFd7F5V2_X78RZ32rPQIBUVFoJReezEg.JPEG.pjhpjh0616/SE-fa783268-6750-4ac9-8b34-88bcd12a0c7e.jpg?type=w800,,새책방      
375,375,,영풍문고(미아롯데점),강북구,강북구 도봉로 62 롯데백화점 미아점 6층,37.61459298,127.0305177,,무료,02-944-2651,,,새책방      
376,376,,영풍문고(사당역점),서초구,서초구 방배천로 11 사당파스텔시티 지하 2층,37.47770076,126.9822361,,무료,02-3487-6213,,,새책방      
377,377,,영풍문고(스타필드코엑스몰점),강남구,강남구 영동대로 513 스타필드 코엑스몰 지하 1층 J101A호,37.51182391,127.059159,,무료,02-6002-2718,https://img.ypbooks.co.kr/ypbooks/images/company/coex_img02.jpg,,새책방      
378,378,,영풍문고(신림타임스트림점),관악구,관악구 신림로 330 신림타임스트림 7층,37.48385134,126.9302345,,무료,02-889-9675  ,,,새책방      
379,379,,영풍문고(여의도IFC몰점),영등포구,영등포구 국제금융로 10 IFC몰 L2층,37.52517752,126.9248767,,무료,02-6137-5254,,,새책방      
380,380,,영풍문고(왕십리역점),성동구,성동구 왕십리광장로 17 비트플렉스 3층,37.56144175,127.0383942,,무료,02-2200-1600,https://hywiki.s3.amazonaws.com/2/23/%EC%98%81%ED%92%8D%EB%AC%B8%EA%B3%A0_%EC%99%95%EC%8B%AD%EB%A6%AC%EC%97%AD%EC%A0%90.png,,새책방      
381,381,,영풍문고(용산아이파크몰점),용산구,용산구 한강대로23길 55 아이파크몰 리빙파크 3층,37.5297718,126.9647415,,무료,02-2012-0828,,,새책방      
382,382,,영풍문고(종각종로본점),종로구,"종로구 청계천로 41 영풍빌딩 지하 1,2층",37.56966797,126.9821793,,무료,1522-2776,,,새책방      
383,383,,영풍문고(홍대점),마포구,마포구 양화로 161 지하 2층,37.55693622,126.9233156,,무료,02-2250-7733,https://image.edaily.co.kr/images/Photo/files/NP/S/2017/09/PS17092000242.jpg,https://www.instagram.com/yp_hongdae/,새책방      
384,384,,예나글방,강남구,강남구 삼성로 151 선경상가 지하1층 13호,37.49315498,127.063,,무료,02-562-4494,https://search.pstatic.net/common/?autoRotate=true&quality=100&type=f640_380&src=https%3A%2F%2Fldb-phinf.pstatic.net%2F20200716_14%2F1594898079774S2HET_JPEG%2F8-wSCKYvpH05Kdeb2F-c6n2E.jpg,,새책방      
385,385,,예람서점,성동구,성동구 고산자로 207 ,37.5586754,127.0337365,,무료,02-2292-2276,https://search.pstatic.net/common/?autoRotate=true&quality=100&type=f640_380&src=https%3A%2F%2Fldb-phinf.pstatic.net%2F20190812_28%2F1565610626485mk5dR_JPEG%2F-JIpGUplED8NnZdFGwUUVPDj.jpg,,새책방      
386,386,,예림문고,강서구,강서구 곰달래로 227 지하 1층,37.53184428,126.858304,,무료,02-2644-9182,https://search.pstatic.net/common/?autoRotate=true&quality=100&type=f640_380&src=https%3A%2F%2Fldb-phinf.pstatic.net%2F20200726_75%2F15957666167990tDql_JPEG%2FydUqMTZzA2R7aNORwybzXYmE.jpg,,새책방      
387,387,,예일문고,도봉구,도봉구 노해로67길 2 지하1층,37.65243024,127.0500283,,무료,02-995-5206,https://localview.co.kr/cp/cpimage/601980035_227445.jpg,,새책방      
388,388,,오에프알,종로구,종로구 자하문로12길 11-14,37.58014127,126.971796,,무료,02-722-9357,https://mblogthumb-phinf.pstatic.net/MjAyMTAzMDVfMjgw/MDAxNjE0ODk3Nzc5NzQx.xI5MpFCg6HP_S8nJX1AeyGmwWYooHKwU8bVJgXWzRRIg.MTM32a1P4LpW_zTbSQdLOvdv-HFcLvG3kZJ-_Ncqmokg.JPEG.hyo_vly/SE-f21317a3-f05f-4daf-93a0-4999d2bbfab1.jpg?type=w800,https://mirabelle.shop,새책방      
389,389,,오프 투 얼론(off to alone),종로구,종로구 자하문로15길 26-4,37.58080339,126.9695282,,무료,,https://mblogthumb-phinf.pstatic.net/MjAxOTAyMThfNSAg/MDAxNTUwNDc0NzU0MDA1.2xl1Q5WReivy0Xfd65aP8NMkhfNihMr3G9cuCcH5Nrcg.x2go5vy5D9oIcZc4pzhK0Xffbd0eXFJZg4E8bksbv-Ig.JPEG.komo_/SE-3bb5d224-05b7-4b6d-9115-648c224b968c.jpg?type=w800,https://www.facebook.com/offtoalone,새책방      
390,390,,옥수서재,성동구,성동구 한림말1길 16-1 지하1층,37.54273673,127.0164133,,무료,,https://mblogthumb-phinf.pstatic.net/MjAyMjA5MTNfMjg1/MDAxNjYzMDMxMTYwNjE1.Cs3OekHw0p9xO99Jqx0wh1mHma8Ya8rLTBvBs430MP8g.kJ01mcRsdeJ9xXmepuGkBPofchRhWyM0d9UTYivJ5V0g.PNG.seoul_library/%EC%84%9C%EC%9A%B8%ED%98%95%EC%B1%85%EB%B0%A9_%EC%84%9C%EC%A0%90%EC%86%8C%EA%B0%9C__%EC%98%A5%EC%88%98%EC%84%9C%EC%9E%AC_%EC%86%8C%EA%B0%9C2.png?type=w800,https://www.instagram.com/oksubook,새책방      
391,391,,온고당서점,마포구,마포구 월드컵북로 41,37.55793797,126.9181133,,무료,0507-1403-9313,https://street-h.com/wp-content/uploads/2013/11/%EB%8F%99%EB%84%A4%EC%84%9C%EC%A0%90_%EC%98%A8%EA%B3%A0%EB%8B%B9_110604_04.jpg,http://ongodangbook.co.kr/,새책방      
392,392,,올오어낫싱,금천구,금천구 시흥대로 315 2층 204호,37.46099111,126.8962652,,무료,02-867-7595,https://img1.daumcdn.net/thumb/R1280x0.fjpg/?fname=http://t1.daumcdn.net/brunch/service/user/oBq/image/AaAuWOk05OEWpaOy5DuD3jhJmuI.jpg,http://allornothing.modoo.at/,새책방      
393,393,,와룡서적문구,용산구,용산구 장문로 97,37.52625973,127.0003988,,무료,02-798-0577,,,새책방      
394,394,,와우북트윈점,영등포구,영등포구 여의대로 128 동관 지하1층,37.5279271,126.9292412,,무료,02-783-2929,,,새책방      
395,395,,우리서점,강남구,강남구 개포로82길 13-15 남강빌딩 2층 202호,37.48882051,127.0683478,,무료,02-3411-3215,,,새책방      
396,396,,우면한솔서점,서초구,서초구 태봉로 70 우면프라자 지하1층,37.46453818,127.025583,,무료,02-529-5949,,,새책방      
397,397,,월드매거진,강남구,논현로149길 75,37.51634813,127.0227586,,무료,0507-1414-6922,,http://www.magazinebook.co.kr,새책방      
398,398,,월드문고,성북구,동소문로 59 지하,37.59144609,127.0120022,,무료,02-925-4885,https://mblogthumb-phinf.pstatic.net/MjAyMjA5MDVfMjg1/MDAxNjYyMzc4Nzg2Nzkz.JDWn2ULa2QUE6bLeTj4IKvv6GESz9YP6bqOJbINM-FIg.c1xhVW_baGsqbDYSmuD0T_I8HDRRQdcP9m125ASrcwIg.JPEG.haesun8381/20220207%EF%BC%BF154057.jpg?type=w800,https://smartstore.naver.com/kimbookstore,새책방      
399,399,,월촌문고,양천구,양천구 목동서로 35 목동프라자 지하 1층,37.53763811,126.8821121,,무료,0507-1413-4144,https://search.pstatic.net/common/?autoRotate=true&quality=95&type=f180_180&src=http%3A%2F%2Fblogfiles.naver.net%2FMjAyMzA0MTJfMjA3%2FMDAxNjgxMjY5ODA0NTYz.NILx72vJKNC9XNY30S8BWgzsdEJ-agiJsxHoutHugc8g.5CN1JUdBnTpyT-OaeEjPFOgs_Tb7pVk1D91hMVImk7Ag.JPEG.makeitawesom%2FKakaoTalk_20230411_193121433.jpg%231120x1480,,새책방      
400,400,,위트 앤 시니컬,종로구,종로구 창경궁로 271-1 동양서림 2층,37.58556826,127.0006014,,무료,0507-1322-6015,https://mblogthumb-phinf.pstatic.net/MjAxODEyMThfMjQ3/MDAxNTQ1MTMzODAyMDE1.KxY7FrFOtRcT_JLfP11gZs167BtMdqKFf-2nCDtln0Ug.j2FwN8Z7VA5q6lnoTMCQ6VLQ_DVT-s_08vep3r_svPwg.JPEG.witncynical/DSC05053.JPG?type=w800,http://witncynical.com,새책방      
401,401,,유어마인드,서대문구,서대문구 연희로11라길 10-6 2층,37.56839735,126.9303035,,무료,070-8821-8990,https://dw82ptradz9jo.cloudfront.net/daylog/6405a585c8121901f9bd25f1/ff9286df-b95e-4676-b017-47ea363521be,http://your-mind.com,새책방      
402,402,,유한서적,종로구,종로구 종로 258 덕성빌딩 A-6호,37.5706569,127.0064795,,무료,02-2279-5936,https://www.yuhan-kimberly.co.kr/data/editor/20211005005824939704237.png,,새책방      
403,403,,은마서적,강남구,강남구 삼성로 212 은마상가 2층,37.49961577,127.0659154,,무료,02-562-7660,https://mblogthumb-phinf.pstatic.net/MjAxOTExMjdfNzcg/MDAxNTc0ODQ3ODczMzMw.1cVAZczKvo7T8ic3oVgTqX38DnCqM8VHavN9unZq_Ewg.1S-QvwKd4rnRz4kUxu9YvuzcvD9BgmIQOwtc1B1th60g.JPEG.hai0416/IMG_7417.JPG?type=w800,,새책방      
404,404,,은평문고,은평구,은평구 응암로 188 2층,37.58962535,126.9173805,,무료,0507-1376-5861,,,새책방      
405,405,,이그잼플러스,동작구,동작구 노량진로14가길 16,37.51260133,126.9434826,,무료,02-823-2223,https://search.pstatic.net/common/?autoRotate=true&quality=100&type=f640_380&src=https%3A%2F%2Fldb-phinf.pstatic.net%2F20201122_170%2F1606029362658ouLfx_JPEG%2F6QGTcRIScEpAMrFEIABPQz0B.jpg,http://www.examplus.net,새책방      
406,406,,이나영책방,관악구,관악구 신사로 66-1 3층,37.48545486,126.9103316,,무료,0507-1498-4402,,https://www.instagram.com/nayounggam_,새책방      
407,407,,이라선,종로구,종로구 효자로7길 5 1층,37.57886927,126.9734631,,무료,0507-1413-0908,https://bookshopmap.s3.ap-northeast-2.amazonaws.com/venue/irasun-cover_1600.jpg,https://smartstore.naver.com/irasun,새책방      
408,408,,이레서적,강남구,강남구 선릉로 843 1층,37.52721588,127.0402104,,무료,02-515-3990,https://mblogthumb-phinf.pstatic.net/MjAyMDA2MzBfNTUg/MDAxNTkzNDcyMDUxMjYy.sVuFRctflIruoB3k5kTa37GQMrR_u70yrY7zZhNlPm4g.KoLWIEg9dBK9Ua2EFNLoijE6myMEW0ERs8jvkh_qh1sg.JPEG.flower-tea-peace/1593472050135.jpg?type=w800,http://www.eraebook.co.kr,새책방      
409,409,,이루리북스(구 프레드릭북스),마포구,마포구 독막로 320 태영데시앙루브 오피스텔 지하1층 B105호,37.5429645,126.9478735,,무료,0507-1338-1027,https://frederic1027.cafe24.com/web/upload/NNEditor/20190713/KakaoTalk_20190116_163212879.jpg,https://www.frederic.co.kr/,새책방      
410,410,,이마녀 중국어 스프,마포구,마포구 어울마당로5길 52 2층,37.55008433,126.9179802,,무료,02-333-1314,,http://hululuc.com/,새책방      
411,411,,이상한 나라의 헌책방,은평구,은평구 서오릉로 18,37.60290211,126.9262706,,무료,070-7698-8903,https://inmun360.culture.go.kr/upload/board/image/92/101492_201602181557188940.JPG,http://www.2sangbook.com,헌책방      
412,412,,이후북스,마포구,마포구 망원로4길 24 2층,37.55560567,126.9019414,,무료,,https://post-phinf.pstatic.net/MjAxOTAxMThfMTk0/MDAxNTQ3NzcyODE1Mjgy.wgNCWAXXVlukrsphO0en-IgCqHisLCkjhs0FiB_MZPog.L99fmOMbD4Uu0MdV-qtqO-IT8yM7-I58sP-tjjjia-Qg.JPEG/1500_%EC%9D%B4%ED%9B%84%EB%B6%81%EC%8A%A4_%284%29.JPG?type=w800_q75,http://blog.naver.com/now_afterbooks,새책방      
413,413,,인덱스숍,광진구,광진구 아차산로 200 커먼그라운드 3층,37.54105663,127.0656692,,무료,02-2122-1259,https://korean.visitseoul.net/comm/getImage?srvcId=POST&parentSn=39734&fileTy=POSTTHUMB&fileNo=1,http://smartstore.naver.com/theindexshop,새책방      
414,414,,일단불온 ,영등포구,영등포구 당산로18길 16-1,37.52280209,126.8979259,,무료,0507-1324-1802,https://mblogthumb-phinf.pstatic.net/MjAyMjAxMjRfMjMy/MDAxNjQzMDIxNDI2MzM0.vCJwMIj9YA8Eb8h9P655Gx6N-bLAmI8zgIR8YekuUDQg.cgXEHaJAsT7I4kzbfkikeYAQ_rEzXEVxppoADmF51wMg.JPEG.ps0225/KakaoTalk_Photo_2022-01-24-19-45-49_011.jpeg?type=w800,https://brunch.co.kr/@lshts0802,새책방      
415,415,,일등문고,관악구,관악구 신림로 131 지하1층,37.47095013,126.9346262,,무료,02-2671-8434,https://search.pstatic.net/common/?autoRotate=true&quality=100&type=f640_380&src=https%3A%2F%2Fldb-phinf.pstatic.net%2F20200606_189%2F15914530676059PExM_JPEG%2Ft-us9cixAhvE2i6YJ-irMuRb.jpg,,새책방      
416,416,,일등서점,관악구,관악구 신림로128 지하1층,37.47148749,126.935262,,무료,070-4151-3007,,,새책방      
417,417,,일신서점,송파구,송파구 송파대로38길 2-9 110호,37.500149,127.1124484,,무료,02-419-9184,https://search.pstatic.net/common/?autoRotate=true&quality=100&type=f640_380&src=https%3A%2F%2Fldb-phinf.pstatic.net%2F20150831_92%2F1441019347583bGBve_JPEG%2FSUBMIT_1371290966377_32283726.jpg,,새책방      
418,418,,일일호일,종로구,종로구 자하문로 52,37.58064682,126.971422,,무료,02-737-1101,"https://mp-seoul-image-production-s3.mangoplate.com/454608/449685_1623483714472_41743?fit=around|512:512&crop=512:512;*,*&output-format=jpg&output-quality=80",https://www.11ho1.com/ ,새책방      
419,419,,잉크앤페더,서초구,"서초구 반포대로 105 다안빌딩 지하 1,2층",37.48951735,127.0084077,,무료,02-3478-0505,https://www.inknfeather.com/resources/efront/company/img/aboutus-article01-img02.jpg,https://www.inknfeather.com/,새책방      
420,420,,자각몽,종로구,종로구 창경궁로 297-2,37.58733003,127.002783,,무료,0507-1314-5152,"https://image.bookshopmap.com/600,fit,q60/venue/jakakmong-cover.jpg",https://www.instagram.com/artbooks_jgm,새책방      
421,421,,자고로,구로구,구로구 신도림로 20,37.50660167,126.8787518,,무료,070-7722-7009,https://www.kurotimes.com/news/photo/201412/18355_7182_459.jpg,,헌책방      
422,422,,자매서점,광진구,용마산로22길 19,37.56372452,127.0880314,,무료,02-457-3078,,https://www.facebook.com/Daewonsisters,새책방      
423,423,,자상한시간,관악구,관악구 중앙길 59,37.48483855,126.9516219,,무료,02-877-1015,https://bookshopmap.s3.ap-northeast-2.amazonaws.com/venue/jasanghansigan_01.jpg,https://blog.naver.com/vodvod279,새책방      
424,424,,자연책사랑,영등포구,영등포구 의사당대로97,37.52251614,126.924586,,무료, 02-783-1949 ,,https://blog.naver.com/jayun/222052792270,새책방      
425,425,,작업책방 씀,마포구,마포구 월드컵로13길 19-17,37.55520996,126.9092844,,무료,0507-1346-6818,"https://image.bookshopmap.com/960,fit,q60/venue/booknwork_sseum_123558349_466290261000899_4474362669207478790_n.jpg?ver=1640059076",http://smaratore.naver.com/booknwork_sseum,새책방      
426,426,,장미문고,송파구,송파구 올림픽로35길 112,37.51788276,127.1018028,,무료,02-423-0872,https://search.pstatic.net/common/?autoRotate=true&quality=100&type=f640_380&src=https%3A%2F%2Fldb-phinf.pstatic.net%2F20220831_260%2F1661949286208YL8IC_JPEG%2F20220830_111236247.jpg,,새책방      
427,427,,장안현대문고,동대문구,동대문구 답십리로72길 36 지하1층,37.57056887,127.0736561,,무료,02-3394-5330,https://mblogthumb-phinf.pstatic.net/MjAyMTAzMTdfMjcy/MDAxNjE1OTU2MjI2ODg5.XG5ztfVX_qMPYL9kGYzpg1X0-kCrnaKvlQlxa9fMc5Mg.v9viP67P84CVXNBiqP6eCIIuLgXU6OX4rCenT7rekYUg.JPEG.beo-kum/%EC%9E%A5%EC%95%88%ED%98%84%EB%8C%80%EB%AC%B8%EA%B3%A0_3.jpg?type=w800,,새책방      
428,428,,전농서적,동대문구,동대문구 사가정로 119,37.57792922,127.0582716,,무료,02-2245-2248,,,새책방      
429,429,,정다운문고,마포구,대흥로 94 크로바빌딩,37.54811146,126.9424459,,무료,02-703-2666,,,새책방      
430,430,,정연재,종로구,종로구 삼일대로 443,37.5739568,126.9870551,,무료,02-733-5023,https://modo-phinf.pstatic.net/20200601_13/1591020779722u024w_JPEG/mosaVEm6NP.jpeg?type=f320_320,,헌책방      
431,431,,정용서점,종로구,종로구 율곡로22길 20,37.57428634,127.0054828,,무료,02-2266-7772,,,새책방      
432,432,,정은도서,중구,중구 청계천로 274 1층,37.56942586,127.0080476,,무료,02-2285-1784,https://post-phinf.pstatic.net/MjAxNzAzMjRfMTcz/MDAxNDkwMzQzMjU3NTg1.rqSinsdwi1qZ1Unl-TVVRQTASox7hiEHfNDB_gCbaeMg.KMdELhGa7m4fl_lgPAQUxiLz27ODPm99tdYV6u5IBpgg.JPEG/%EC%A0%95%EC%9D%80%EB%8F%84%EC%84%9C3.jpg?type=w800_q75,,헌책방      
433,433,,정은서점,서대문구,서대문구 증가로21길 38,37.57987372,126.9134846,,무료,02-305-9201,https://t1.daumcdn.net/cfile/tistory/115D264A4EE01D4205,www.jbstore.co.kr,헌책방      
434,434,,정의문고,도봉구,도봉구 노해로49길 69-4 ,37.65236471,127.0322852,,무료,02-907-4775,,,새책방      
435,435,,제로헌드레드,마포구,마포구 희우정로10길 33,37.55335783,126.905783,,무료,,https://mblogthumb-phinf.pstatic.net/MjAyMjA4MDRfOTEg/MDAxNjU5NTc2MjM5OTMz.3B4H6_eOxcMs7b2VBkoeYmLPPlpikSv3PYCO3YG9ZNYg.ZRb0ka-yRAlAhGTdfujg5JhALclobyKlfaNkHX6rNsAg.PNG.seoul_library/KakaoTalk_20220726_162713506_01.png?type=w800,https://zerohundredbooks.com,새책방      
436,436,,제일서점,영등포구,영등포구 의사당대로1 국회소통관,37.53291197,126.9164039,,무료, 02-780-6306 ,,,새책방      
437,437,,제일서점,종로구,종로 258-2 가로판매대,37.5706569,127.0064795,,무료,02-2279-7236,,,새책방      
438,438,,제일서점,동작구,동작구 노량진로16길 30 2층,37.51229097,126.9439375,,무료,02-822-3191,,http://www.jeilbook.com/,새책방      
439,439,,조은이책,마포구,마포구 월드컵북로27길 6,37.56724513,126.9091861,,무료,070-7617-6949 ,"https://image.bookshopmap.com/600,fit,q60/venue/%E1%84%8C%E1%85%A9%E1%84%8B%E1%85%B3%E1%86%AB%E1%84%8B%E1%85%B5%E1%84%8E%E1%85%A2%E1%86%A81.jpg",https://blog.naver.com/cchhoni,새책방      
440,440,,종로문고,강서구,강서구 강서로 45길 39 지하1층,37.54782406,126.8339729,,무료,02-2608-4780,https://www.barovone.com/data/upload/company/%EC%A2%85%EB%A1%9C%EB%AC%B8%EA%B3%A0.jpg,,새책방      
441,441,,종로서적,종로구,종로구 종로 51 종로타워 지하 2층,37.57074514,126.9836114,,무료,0507-1418-2331,https://images.chosun.com/resizer/6nMhQxVZzw11LHuqYpGt7Z_9OXM=/601x361/smart/cloudfront-ap-northeast-1.images.arcpublishing.com/chosun/3JK6OPJPL7HW6FL3Q2CO26ACH4.jpg,http://jongnobooks.com,새책방      
442,442,,종암문고,성북구,성북구 종암로 86 2층,37.5979157,127.035222,,무료,02-915-6427,https://mblogthumb-phinf.pstatic.net/MjAyMjA1MTBfMTgw/MDAxNjUyMTcyNjYzODAz.pB7K1vD5p6H0AQq-TJp4MDdQAr0KjiEppJK1Gy4Itx0g.uWZzRBXrpL5aSxaKJHtsoInjvengAajP8ZZr4hB7QAwg.JPEG.beo-kum/%EC%A2%85%EC%95%94%EB%AC%B8%EA%B3%A0_3.jpg?type=w800,,새책방      
443,443,,종합서적,종로구,종로구 종로 258,37.57141277,127.0075763,,무료,02-2278-0939,,,새책방      
444,444,,좋은책많은데,노원구,노원구 공릉로43길 1 대상빌딩 지하,37.62611722,127.0793351,,무료,02-434-1716,https://www.seoulbookbogo.kr/shop/img/store_person16.jpg,,헌책방      
445,445,,좋은책서점,관악구,관악구 난곡로 184 대원빌딩 2층,37.47167022,126.9199812,,무료,02-866-7474,,https://goodbookstore.modoo.at/,새책방      
446,446,,주책,중랑구,중랑구 면목로55길 57,37.58433505,127.0850742,,무료,02-435-9990,,https://www.instagram.com/JUCHAEG/,새책방      
447,447,,중곡서점,광진구,광진구 능동로49길 40,37.56502012,127.0812933,,무료,02-466-6235,https://map0.daumcdn.net/map_roadview/2022/08/9131328/2_100111_9131328_20220811063715_cube/left_1200.jpg,,새책방      
448,448,,중국서점,종로구,종로구 종로 19 르메이에르종로타운1,37.57084449,126.9799237,,무료,02-722-4688,https://i.ytimg.com/vi/KTxiqfSdrzA/maxresdefault.jpg,http://www.chinabook.co.kr/,새책방      
449,449,,중랑중고책갤러리,중랑구,중랑구 동일로 805-1,37.60238514,127.0790051,,무료,,https://mblogthumb-phinf.pstatic.net/MjAyMjA0MjlfMjk4/MDAxNjUxMjQwMjM5MjQ2.ETMZ_nNbpbOKswEAdhD5ILY0wVyrfPMcyr-LoWQ-298g.la5uFM_3gL-CPuYVt-RqZiD3og_3auXDCKsZwINGrH0g.JPEG.ododod00/1651240237732.jpg?type=w800,,헌책방      
450,450,,중화문고,중랑구,중랑구 동일로 769 농협 지하 1층,37.59906992,127.0795732,,무료,02-435-2400,,,새책방      
451,451,,중화서국,중구,중구 남대문로 52-5,37.5621198,126.981717,,무료,02-777-0090,https://t1.daumcdn.net/cfile/tistory/273A0A3C58262EB229,https://www.ichinabook.com,새책방      
452,452,,지구불시착,노원구,노원구 화랑로 464,37.61850852,127.0788608,,무료,02-977-1318,"https://image.bookshopmap.com/600,fit,q60/venue/illruwa2_54463748_590780634731073_8702928987235894929_n.jpg",https://smartstore.naver.com/unplannedearth,새책방      
453,453,,지금의세상,동작구,동작구 동작대로3길 41,37.47866795,126.9791947,,무료, ,https://search.pstatic.net/common/?autoRotate=true&quality=100&type=f640_380&src=https%3A%2F%2Fldb-phinf.pstatic.net%2F20220129_298%2F1643466511349O9g8C_JPEG%2F20220112_153334-01.jpeg,https://smartstore.naver.com/the_present_world,새책방      
454,454,,지식을담다,성북구,성북구 고려대로24가길 17 소낭구 빌딩,37.58533485,127.030463,,무료,02-927-8044,https://img1.daumcdn.net/thumb/R1280x0/?fname=http://t1.daumcdn.net/brunch/service/user/1pHv/image/1CKHZvuvEf7gAK3JklBWJIQNoL4.jpg,https://www.instagram.com/jidambooks/,새책방      
455,455,,직매도서,종로구,종로구 종로40길 4 A-14호,37.5706569,127.0064795,,무료,02-2273-1331,,,새책방      
456,456,,진부책방스튜디오,마포구,마포구 잔다리로 112 2층,37.55699893,126.9144013,,무료,070-5142-1600,"https://image.bookshopmap.com/960,fit,q60/venue/%E1%84%8C%E1%85%B5%E1%86%AB%E1%84%87%E1%85%AE%E1%84%8E%E1%85%A2%E1%86%A8%E1%84%87%E1%85%A1%E1%86%BC%E1%84%89%E1%85%B3%E1%84%90%E1%85%B2%E1%84%83%E1%85%B5%E1%84%8B%E1%85%A9%20%E1%84%82%E1%85%A2%E1%84%87%E1%85%AE2_f204d137-md.jpg?",https://www.youtube.com/channel/UC3XomNp3nmqI4eKmXjA4lag,새책방      
457,457,,진영문고,서초구,서초구 방배로 60,37.48017347,126.9988918,,무료,02-3471-1997,https://search.pstatic.net/common/?autoRotate=true&quality=100&type=f640_380&src=https%3A%2F%2Fldb-phinf.pstatic.net%2F20150831_279%2F1441000134434UnTpz_JPEG%2F106576457139873_0.jpg,,새책방      
458,458,,진학서점,양천구,양천구 목동로 177,37.52431307,126.8645137,,무료,02-2692-0481,https://search.pstatic.net/common/?autoRotate=true&quality=100&type=f640_380&src=https%3A%2F%2Fldb-phinf.pstatic.net%2F20191102_199%2F1572685537039wkBEm_JPEG%2FG7SB_aAnZZSrQHsweb5NV16l.jpg,,새책방      
459,459,,질문서점 인공위성,구로구,구로구 구로중앙로27가길 32,37.49760525,126.8864852,,무료,070-4642-0255,,https://smartstore.naver.com/2lookbook,새책방      
460,460,,차일드북앤토이,성동구,성동구 무학봉길 62-2,37.56058999,127.0294949,,무료,02-2294-5752,https://www.barovone.com/data/upload/company/%EC%B0%A8%EC%9D%BC%EB%93%9C%EB%B6%81%EC%95%A4%ED%86%A0%EC%9D%B4-1.jpg,https://smartstore.naver.com/booksalang/products/5419570415,새책방      
461,461,,창문사,중구,중구 청계천로 274 다27호,37.56942586,127.0080476,,무료,02-2265-3227,https://search.pstatic.net/common/?autoRotate=true&quality=100&type=f640_380&src=https%3A%2F%2Fldb-phinf.pstatic.net%2F20190131_171%2F1548871386525l33sy_JPEG%2FzBEvcDdMkDCp45JA7duv83dO.jpg,,헌책방      
